[
  {
    "name": "Eleanor O'Kon",
    "latitude": 37.86061854928129,
    "longitude": -122.33734024572752,
    "description": "Job Title: Human Metrics Planner, Personal Loan Account: 33517747"
  },
  {
    "name": "Stella Kemmer",
    "latitude": 37.82112767082659,
    "longitude": -122.34200196429578,
    "description": "Job Title: Internal Response Officer, Money Market Account: 97263407"
  },
  {
    "name": "Shannon Blanda DVM",
    "latitude": 37.86812526422684,
    "longitude": -122.50292064560571,
    "description": "Job Title: Future Creative Consultant, Credit Card Account: 44043752"
  },
  {
    "name": "Cynthia Batz",
    "latitude": 37.68288876803095,
    "longitude": -122.319452855052,
    "description": "Job Title: District Tactics Designer, Home Loan Account: 75328622"
  },
  {
    "name": "Sally Gislason",
    "latitude": 37.844488219685076,
    "longitude": -122.36413783737663,
    "description": "Job Title: Legacy Usability Analyst, Checking Account: 74997643"
  },
  {
    "name": "Johnnie Wolff",
    "latitude": 37.82974826925028,
    "longitude": -122.49569653613165,
    "description": "Job Title: Internal Intranet Coordinator, Auto Loan Account: 31913491"
  },
  {
    "name": "Andy Ruecker",
    "latitude": 37.86963944760096,
    "longitude": -122.34356645923921,
    "description": "Job Title: National Integration Designer, Checking Account: 21393358"
  },
  {
    "name": "Rene Roberts",
    "latitude": 37.71360822103681,
    "longitude": -122.45109267788969,
    "description": "Job Title: Internal Intranet Assistant, Auto Loan Account: 95792357"
  },
  {
    "name": "Shari Williamson",
    "latitude": 37.71755636501769,
    "longitude": -122.41650740792225,
    "description": "Job Title: Principal Creative Consultant, Checking Account: 10077881"
  },
  {
    "name": "Dr. Herbert Monahan",
    "latitude": 37.68903965099626,
    "longitude": -122.34923125421975,
    "description": "Job Title: Central Metrics Administrator, Money Market Account: 32284737"
  },
  {
    "name": "Dan Kihn",
    "latitude": 37.77876430269254,
    "longitude": -122.3477452333926,
    "description": "Job Title: Future Optimization Executive, Investment Account: 20693363"
  },
  {
    "name": "Max Robel",
    "latitude": 37.69343822677484,
    "longitude": -122.51086020430414,
    "description": "Job Title: National Factors Orchestrator, Credit Card Account: 30584576"
  },
  {
    "name": "Emma Boehm MD",
    "latitude": 37.778756561245274,
    "longitude": -122.40644737815988,
    "description": "Job Title: National Applications Executive, Auto Loan Account: 55575485"
  },
  {
    "name": "Cory Stokes Sr.",
    "latitude": 37.744825942604564,
    "longitude": -122.36373199697097,
    "description": "Job Title: Corporate Data Technician, Checking Account: 29935162"
  },
  {
    "name": "Ollie Herzog",
    "latitude": 37.68811668298038,
    "longitude": -122.4898784592153,
    "description": "Job Title: Chief Interactions Administrator, Credit Card Account: 63819199"
  },
  {
    "name": "Gerard Rippin V",
    "latitude": 37.81657296425915,
    "longitude": -122.36663981518736,
    "description": "Job Title: Regional Usability Facilitator, Home Loan Account: 06020466"
  },
  {
    "name": "Dewey Hodkiewicz",
    "latitude": 37.77358422354006,
    "longitude": -122.3202488064051,
    "description": "Job Title: Chief Quality Administrator, Auto Loan Account: 56536212"
  },
  {
    "name": "Eric Toy",
    "latitude": 37.71416370146606,
    "longitude": -122.37745557512557,
    "description": "Job Title: International Web Analyst, Auto Loan Account: 09363139"
  },
  {
    "name": "Dallas Volkman",
    "latitude": 37.717778007853966,
    "longitude": -122.4875291607267,
    "description": "Job Title: Global Response Associate, Investment Account: 57347426"
  },
  {
    "name": "Dr. Maria Thompson",
    "latitude": 37.68566072165718,
    "longitude": -122.38612246984523,
    "description": "Job Title: National Paradigm Architect, Credit Card Account: 18385331"
  },
  {
    "name": "Melba Funk",
    "latitude": 37.813096287050286,
    "longitude": -122.39793849609998,
    "description": "Job Title: International Web Orchestrator, Home Loan Account: 61581480"
  },
  {
    "name": "Ms. Johnny Becker",
    "latitude": 37.768866832746546,
    "longitude": -122.39923847382569,
    "description": "Job Title: Human Response Associate, Money Market Account: 62253749"
  },
  {
    "name": "Elijah Altenwerth",
    "latitude": 37.87072036526258,
    "longitude": -122.36712820836242,
    "description": "Job Title: Corporate Marketing Engineer, Credit Card Account: 51084065"
  },
  {
    "name": "Stewart Farrell",
    "latitude": 37.8593958576116,
    "longitude": -122.33316791046543,
    "description": "Job Title: Dynamic Quality Consultant, Investment Account: 21930166"
  },
  {
    "name": "Harold Harris I",
    "latitude": 37.74546328446987,
    "longitude": -122.4689703176414,
    "description": "Job Title: Forward Mobility Specialist, Investment Account: 26994368"
  },
  {
    "name": "Lois Fritsch",
    "latitude": 37.79433528208431,
    "longitude": -122.36216050852968,
    "description": "Job Title: Investor Operations Architect, Checking Account: 54014236"
  },
  {
    "name": "Dexter Metz",
    "latitude": 37.77784051484052,
    "longitude": -122.33350444105544,
    "description": "Job Title: National Response Technician, Auto Loan Account: 86537186"
  },
  {
    "name": "Lionel Hauck",
    "latitude": 37.757108259930426,
    "longitude": -122.34418641094622,
    "description": "Job Title: Senior Security Consultant, Savings Account: 95511258"
  },
  {
    "name": "Glenn Doyle",
    "latitude": 37.77816448685171,
    "longitude": -122.43976441658214,
    "description": "Job Title: Direct Intranet Representative, Home Loan Account: 44236471"
  },
  {
    "name": "Nicolas Langosh",
    "latitude": 37.70746035062909,
    "longitude": -122.38081013621195,
    "description": "Job Title: District Functionality Agent, Investment Account: 55975433"
  },
  {
    "name": "Nicolas Thompson",
    "latitude": 37.83280654703879,
    "longitude": -122.32555048950513,
    "description": "Job Title: International Creative Representative, Investment Account: 86319077"
  },
  {
    "name": "Eula Jast I",
    "latitude": 37.80261274848444,
    "longitude": -122.38400894551295,
    "description": "Job Title: Forward Applications Engineer, Checking Account: 53481583"
  },
  {
    "name": "Jamie Marvin",
    "latitude": 37.867197413199435,
    "longitude": -122.43598922658899,
    "description": "Job Title: National Interactions Engineer, Home Loan Account: 28220754"
  },
  {
    "name": "Mona Hartmann",
    "latitude": 37.773565861807405,
    "longitude": -122.38714749867788,
    "description": "Job Title: Future Data Representative, Money Market Account: 65799237"
  },
  {
    "name": "Abraham Rolfson",
    "latitude": 37.78125623156557,
    "longitude": -122.47247056134717,
    "description": "Job Title: Lead Solutions Technician, Auto Loan Account: 21994034"
  },
  {
    "name": "Wesley Kemmer",
    "latitude": 37.74539928227349,
    "longitude": -122.34465818440825,
    "description": "Job Title: Global Accounts Strategist, Investment Account: 76326686"
  },
  {
    "name": "Ms. Albert Cruickshank",
    "latitude": 37.810142568667644,
    "longitude": -122.35719552093629,
    "description": "Job Title: Future Brand Executive, Savings Account: 85889820"
  },
  {
    "name": "Mamie Collier",
    "latitude": 37.82615615451849,
    "longitude": -122.33514036809703,
    "description": "Job Title: Customer Usability Technician, Auto Loan Account: 73226665"
  },
  {
    "name": "Corey Dickens",
    "latitude": 37.83044726670092,
    "longitude": -122.32184214448645,
    "description": "Job Title: Human Paradigm Agent, Savings Account: 74358130"
  },
  {
    "name": "Dexter Hermiston MD",
    "latitude": 37.714451242318006,
    "longitude": -122.42864017533307,
    "description": "Job Title: Corporate Creative Facilitator, Credit Card Account: 12465133"
  },
  {
    "name": "Hazel Hettinger",
    "latitude": 37.8726601776518,
    "longitude": -122.5099278030315,
    "description": "Job Title: Future Optimization Officer, Savings Account: 81702376"
  },
  {
    "name": "Phil Mann",
    "latitude": 37.8009609304045,
    "longitude": -122.32136932427436,
    "description": "Job Title: Forward Applications Administrator, Money Market Account: 84416580"
  },
  {
    "name": "Faith Blanda",
    "latitude": 37.75314841808685,
    "longitude": -122.38437794576706,
    "description": "Job Title: Legacy Operations Designer, Investment Account: 30338668"
  },
  {
    "name": "Mrs. Ellen Fahey",
    "latitude": 37.86827948682,
    "longitude": -122.32966063256596,
    "description": "Job Title: Senior Interactions Strategist, Money Market Account: 85883219"
  },
  {
    "name": "Lynette West",
    "latitude": 37.85589220251046,
    "longitude": -122.37881558200444,
    "description": "Job Title: Customer Quality Developer, Home Loan Account: 06962317"
  },
  {
    "name": "Brad Bogisich",
    "latitude": 37.730251886170926,
    "longitude": -122.37102798166417,
    "description": "Job Title: Internal Identity Engineer, Auto Loan Account: 46349862"
  },
  {
    "name": "Amy Fadel",
    "latitude": 37.79942682726391,
    "longitude": -122.34204971810796,
    "description": "Job Title: Global Group Executive, Checking Account: 58591857"
  },
  {
    "name": "Doyle Hilll",
    "latitude": 37.80631281930822,
    "longitude": -122.42507532986228,
    "description": "Job Title: Direct Operations Specialist, Credit Card Account: 54887596"
  },
  {
    "name": "Sophie Bogisich",
    "latitude": 37.822137818903094,
    "longitude": -122.36840290407507,
    "description": "Job Title: Product Applications Associate, Investment Account: 62984074"
  },
  {
    "name": "Cecil Weimann",
    "latitude": 37.69636727346084,
    "longitude": -122.40502730534295,
    "description": "Job Title: Investor Brand Executive, Credit Card Account: 99355331"
  },
  {
    "name": "Sophie Berge",
    "latitude": 37.7949079770362,
    "longitude": -122.47848850556626,
    "description": "Job Title: Legacy Configuration Assistant, Money Market Account: 28325519"
  },
  {
    "name": "Guy Johnson",
    "latitude": 37.82421298216794,
    "longitude": -122.41689981696935,
    "description": "Job Title: Global Integration Officer, Money Market Account: 94973816"
  },
  {
    "name": "Garry Monahan",
    "latitude": 37.835513042028055,
    "longitude": -122.34449105727961,
    "description": "Job Title: Dynamic Usability Liaison, Personal Loan Account: 59089594"
  },
  {
    "name": "Mildred Frami",
    "latitude": 37.83967933066957,
    "longitude": -122.37823200308031,
    "description": "Job Title: Corporate Assurance Architect, Auto Loan Account: 33940990"
  },
  {
    "name": "Abraham Farrell",
    "latitude": 37.694724214063825,
    "longitude": -122.32628215316903,
    "description": "Job Title: International Marketing Executive, Checking Account: 14242309"
  },
  {
    "name": "Bridget Purdy",
    "latitude": 37.7355495603822,
    "longitude": -122.34205318477426,
    "description": "Job Title: Direct Integration Representative, Credit Card Account: 84671043"
  },
  {
    "name": "Maurice Hodkiewicz MD",
    "latitude": 37.7408610339917,
    "longitude": -122.42484469300659,
    "description": "Job Title: Legacy Brand Orchestrator, Home Loan Account: 93495577"
  },
  {
    "name": "Matt Bernier",
    "latitude": 37.83254759063738,
    "longitude": -122.3799567879859,
    "description": "Job Title: Chief Functionality Specialist, Money Market Account: 99736265"
  },
  {
    "name": "Nelson Mueller",
    "latitude": 37.677730023412074,
    "longitude": -122.48042917835622,
    "description": "Job Title: Dynamic Security Coordinator, Home Loan Account: 61552995"
  },
  {
    "name": "Josephine Kunde",
    "latitude": 37.675053315068745,
    "longitude": -122.36044425431876,
    "description": "Job Title: Principal Communications Representative, Investment Account: 87114458"
  },
  {
    "name": "Kent Bahringer",
    "latitude": 37.74772199615513,
    "longitude": -122.36622098518072,
    "description": "Job Title: Product Program Liaison, Auto Loan Account: 10239911"
  },
  {
    "name": "Rickey Tremblay DVM",
    "latitude": 37.788635922962335,
    "longitude": -122.4458700346927,
    "description": "Job Title: Regional Integration Director, Checking Account: 51065591"
  },
  {
    "name": "Rudolph Rogahn",
    "latitude": 37.86128325784745,
    "longitude": -122.32405980752198,
    "description": "Job Title: Investor Interactions Agent, Savings Account: 96855964"
  },
  {
    "name": "Ms. Shannon Collier IV",
    "latitude": 37.777165283746854,
    "longitude": -122.51623212875072,
    "description": "Job Title: Central Metrics Representative, Auto Loan Account: 54509541"
  },
  {
    "name": "Laura Brown",
    "latitude": 37.69013533293043,
    "longitude": -122.46680253600131,
    "description": "Job Title: Lead Implementation Analyst, Savings Account: 62225858"
  },
  {
    "name": "Ms. Pamela Rau Jr.",
    "latitude": 37.8653926046785,
    "longitude": -122.48715126895394,
    "description": "Job Title: Chief Security Associate, Credit Card Account: 51045134"
  },
  {
    "name": "Ms. Pauline Pacocha",
    "latitude": 37.794377047170926,
    "longitude": -122.38399244898793,
    "description": "Job Title: International Mobility Associate, Personal Loan Account: 96215627"
  },
  {
    "name": "Juan Rowe",
    "latitude": 37.86382221632645,
    "longitude": -122.40089240001835,
    "description": "Job Title: Internal Branding Agent, Investment Account: 24087152"
  },
  {
    "name": "Marlon McGlynn",
    "latitude": 37.76954896744346,
    "longitude": -122.39642840174595,
    "description": "Job Title: Central Tactics Technician, Home Loan Account: 15788894"
  },
  {
    "name": "Kristina Dach",
    "latitude": 37.85553340939398,
    "longitude": -122.33210297057093,
    "description": "Job Title: Principal Web Specialist, Credit Card Account: 01589381"
  },
  {
    "name": "Isabel Koss",
    "latitude": 37.71982489091439,
    "longitude": -122.34966360814478,
    "description": "Job Title: Chief Paradigm Designer, Money Market Account: 09750942"
  },
  {
    "name": "Rufus Beatty I",
    "latitude": 37.764793266664164,
    "longitude": -122.50067760992768,
    "description": "Job Title: Senior Applications Architect, Investment Account: 84721427"
  },
  {
    "name": "Mrs. Stephanie Medhurst",
    "latitude": 37.81749882288082,
    "longitude": -122.34804988566684,
    "description": "Job Title: Customer Paradigm Strategist, Investment Account: 38782857"
  },
  {
    "name": "Bob Jast",
    "latitude": 37.76814708966291,
    "longitude": -122.42039165335669,
    "description": "Job Title: Lead Security Technician, Personal Loan Account: 74441685"
  },
  {
    "name": "Ms. Boyd Gerlach",
    "latitude": 37.73141453873555,
    "longitude": -122.44473036168954,
    "description": "Job Title: Human Quality Representative, Checking Account: 64794246"
  },
  {
    "name": "Courtney Greenfelder",
    "latitude": 37.701402073253895,
    "longitude": -122.40211343386062,
    "description": "Job Title: Senior Assurance Manager, Money Market Account: 06661422"
  },
  {
    "name": "Andre Hackett",
    "latitude": 37.70783361478852,
    "longitude": -122.43101892355222,
    "description": "Job Title: Lead Optimization Technician, Investment Account: 00242760"
  },
  {
    "name": "Terri Hoppe I",
    "latitude": 37.85047804657652,
    "longitude": -122.34059544337961,
    "description": "Job Title: Senior Data Director, Personal Loan Account: 35084502"
  },
  {
    "name": "Lorraine West",
    "latitude": 37.83872198661241,
    "longitude": -122.49660161968166,
    "description": "Job Title: Internal Data Manager, Money Market Account: 45594829"
  },
  {
    "name": "Kurt Thompson",
    "latitude": 37.87497740264629,
    "longitude": -122.32589873504743,
    "description": "Job Title: Future Branding Architect, Home Loan Account: 11532732"
  },
  {
    "name": "Gregg Runte",
    "latitude": 37.80711759643736,
    "longitude": -122.3227005270408,
    "description": "Job Title: International Program Planner, Investment Account: 72558825"
  },
  {
    "name": "Laurence Tremblay",
    "latitude": 37.7593360239335,
    "longitude": -122.34439002157859,
    "description": "Job Title: Corporate Accountability Technician, Credit Card Account: 88043710"
  },
  {
    "name": "Hannah O'Reilly III",
    "latitude": 37.8290342913339,
    "longitude": -122.51504191484642,
    "description": "Job Title: Central Accountability Liaison, Money Market Account: 49713982"
  },
  {
    "name": "Faith Schmidt",
    "latitude": 37.86785915409182,
    "longitude": -122.37172223210798,
    "description": "Job Title: Internal Usability Executive, Investment Account: 32527048"
  },
  {
    "name": "Denise Padberg",
    "latitude": 37.81672856800372,
    "longitude": -122.40305071222218,
    "description": "Job Title: District Interactions Architect, Credit Card Account: 29203289"
  },
  {
    "name": "Rebecca Quitzon",
    "latitude": 37.74326451927305,
    "longitude": -122.38902333651033,
    "description": "Job Title: District Tactics Manager, Checking Account: 13428272"
  },
  {
    "name": "Jerry Collier",
    "latitude": 37.81223758147837,
    "longitude": -122.34391541114307,
    "description": "Job Title: Senior Response Facilitator, Investment Account: 54308683"
  },
  {
    "name": "Frankie O'Keefe",
    "latitude": 37.69900635043594,
    "longitude": -122.32118374695769,
    "description": "Job Title: District Tactics Planner, Auto Loan Account: 66465940"
  },
  {
    "name": "Rhonda Lemke",
    "latitude": 37.67674283699213,
    "longitude": -122.4027193150212,
    "description": "Job Title: Future Implementation Agent, Investment Account: 33226144"
  },
  {
    "name": "Cody Schneider",
    "latitude": 37.86920012072623,
    "longitude": -122.42388705430359,
    "description": "Job Title: Direct Tactics Facilitator, Credit Card Account: 43591011"
  },
  {
    "name": "Cory Medhurst",
    "latitude": 37.844644459340174,
    "longitude": -122.4855650000504,
    "description": "Job Title: Central Research Facilitator, Auto Loan Account: 12020878"
  },
  {
    "name": "Alejandro Thiel",
    "latitude": 37.845693663654124,
    "longitude": -122.38562634965014,
    "description": "Job Title: Product Response Representative, Investment Account: 79956670"
  },
  {
    "name": "Myra Strosin II",
    "latitude": 37.85550023538578,
    "longitude": -122.4215332404779,
    "description": "Job Title: Central Quality Executive, Checking Account: 28658264"
  },
  {
    "name": "Myrtle Huel",
    "latitude": 37.87250886922857,
    "longitude": -122.38397134744707,
    "description": "Job Title: Direct Identity Director, Investment Account: 11716678"
  },
  {
    "name": "Ross Berge",
    "latitude": 37.74740040420639,
    "longitude": -122.50764793786861,
    "description": "Job Title: Direct Tactics Analyst, Checking Account: 50783669"
  },
  {
    "name": "Ernesto Rippin",
    "latitude": 37.78818933393712,
    "longitude": -122.46857626782315,
    "description": "Job Title: Product Solutions Administrator, Credit Card Account: 22579836"
  },
  {
    "name": "Dr. Christie Waters",
    "latitude": 37.784060821723386,
    "longitude": -122.36513087029415,
    "description": "Job Title: International Marketing Officer, Investment Account: 89802832"
  },
  {
    "name": "Robin Goyette",
    "latitude": 37.72929105852559,
    "longitude": -122.44323560903699,
    "description": "Job Title: Corporate Operations Planner, Investment Account: 30049918"
  },
  {
    "name": "Brittany Medhurst",
    "latitude": 37.7804876002026,
    "longitude": -122.47899873086703,
    "description": "Job Title: Central Infrastructure Designer, Investment Account: 28814963"
  },
  {
    "name": "Miss Jan Bosco",
    "latitude": 37.696504251631055,
    "longitude": -122.38025827793588,
    "description": "Job Title: Global Web Representative, Credit Card Account: 77180521"
  },
  {
    "name": "Willis Veum Sr.",
    "latitude": 37.681909123322036,
    "longitude": -122.51409075292955,
    "description": "Job Title: Product Quality Representative, Credit Card Account: 13791462"
  },
  {
    "name": "Lucia Kuhlman",
    "latitude": 37.728882581964506,
    "longitude": -122.38757567033379,
    "description": "Job Title: Principal Solutions Facilitator, Personal Loan Account: 93038176"
  },
  {
    "name": "Latoya Wolf",
    "latitude": 37.81309877298968,
    "longitude": -122.44933403737316,
    "description": "Job Title: Regional Data Director, Investment Account: 88883652"
  },
  {
    "name": "Eva Hermiston V",
    "latitude": 37.86307361361817,
    "longitude": -122.394482267983,
    "description": "Job Title: Corporate Communications Analyst, Savings Account: 43115744"
  },
  {
    "name": "Ms. Teresa Runolfsdottir",
    "latitude": 37.864134397898205,
    "longitude": -122.50728796413306,
    "description": "Job Title: Legacy Directives Executive, Savings Account: 91905357"
  },
  {
    "name": "Joyce Stanton Jr.",
    "latitude": 37.759659923679784,
    "longitude": -122.39463154720058,
    "description": "Job Title: Product Data Facilitator, Savings Account: 31579433"
  },
  {
    "name": "Billy Romaguera",
    "latitude": 37.67896833331051,
    "longitude": -122.49556689809096,
    "description": "Job Title: Global Intranet Orchestrator, Money Market Account: 40129968"
  },
  {
    "name": "Dr. Joseph Beier",
    "latitude": 37.847349638160566,
    "longitude": -122.43664121874649,
    "description": "Job Title: Chief Directives Technician, Home Loan Account: 69158883"
  },
  {
    "name": "Phil Hayes",
    "latitude": 37.85338748261803,
    "longitude": -122.43053423823365,
    "description": "Job Title: Principal Integration Technician, Auto Loan Account: 03783246"
  },
  {
    "name": "Duane Torp",
    "latitude": 37.758263802526145,
    "longitude": -122.3419487187172,
    "description": "Job Title: Direct Solutions Strategist, Money Market Account: 64645991"
  },
  {
    "name": "Jeanette Brekke",
    "latitude": 37.784174895617575,
    "longitude": -122.47614270176648,
    "description": "Job Title: District Communications Assistant, Money Market Account: 17635534"
  },
  {
    "name": "Cecelia Waelchi",
    "latitude": 37.67772616726288,
    "longitude": -122.51084171558904,
    "description": "Job Title: Principal Paradigm Supervisor, Savings Account: 58763512"
  },
  {
    "name": "Lewis Kuhlman",
    "latitude": 37.83069736494469,
    "longitude": -122.38505373860502,
    "description": "Job Title: Legacy Identity Engineer, Investment Account: 86322332"
  },
  {
    "name": "Felix Mills",
    "latitude": 37.86416124385761,
    "longitude": -122.50761271517794,
    "description": "Job Title: Customer Integration Engineer, Investment Account: 17375983"
  },
  {
    "name": "Valerie Hirthe",
    "latitude": 37.834437660933986,
    "longitude": -122.43537976974629,
    "description": "Job Title: National Tactics Supervisor, Credit Card Account: 25262352"
  },
  {
    "name": "Rex Lang",
    "latitude": 37.742655609689635,
    "longitude": -122.46112621529376,
    "description": "Job Title: Central Metrics Agent, Personal Loan Account: 43890217"
  },
  {
    "name": "Sheryl Frami",
    "latitude": 37.69578013476722,
    "longitude": -122.46094929350521,
    "description": "Job Title: International Implementation Developer, Credit Card Account: 88521025"
  },
  {
    "name": "Yvonne Stracke",
    "latitude": 37.753588872059154,
    "longitude": -122.51370283611958,
    "description": "Job Title: Global Brand Assistant, Personal Loan Account: 30295045"
  },
  {
    "name": "Henry Nikolaus",
    "latitude": 37.869749632021,
    "longitude": -122.34079939489835,
    "description": "Job Title: District Group Assistant, Money Market Account: 71337432"
  },
  {
    "name": "Yolanda Frami PhD",
    "latitude": 37.68023970387138,
    "longitude": -122.51837806405084,
    "description": "Job Title: Central Interactions Engineer, Personal Loan Account: 95317360"
  },
  {
    "name": "Megan Windler",
    "latitude": 37.84022993641036,
    "longitude": -122.4664719151355,
    "description": "Job Title: Corporate Accountability Coordinator, Money Market Account: 80427901"
  },
  {
    "name": "Dr. Lena Mann",
    "latitude": 37.685211863863735,
    "longitude": -122.47854457541007,
    "description": "Job Title: Internal Tactics Director, Investment Account: 62123305"
  },
  {
    "name": "Tricia King Sr.",
    "latitude": 37.809588326758124,
    "longitude": -122.38404728317357,
    "description": "Job Title: Corporate Solutions Representative, Money Market Account: 85066362"
  },
  {
    "name": "David Marvin",
    "latitude": 37.67523386484974,
    "longitude": -122.34715424287407,
    "description": "Job Title: District Accounts Supervisor, Savings Account: 75374400"
  },
  {
    "name": "Dominic Willms",
    "latitude": 37.79719680024567,
    "longitude": -122.4789008451403,
    "description": "Job Title: Human Solutions Developer, Credit Card Account: 61994695"
  },
  {
    "name": "Marcos Walker",
    "latitude": 37.846515690227115,
    "longitude": -122.40710953126458,
    "description": "Job Title: Senior Applications Supervisor, Auto Loan Account: 70726826"
  },
  {
    "name": "Willie Abshire",
    "latitude": 37.77254760641892,
    "longitude": -122.49125566353622,
    "description": "Job Title: Internal Web Designer, Investment Account: 40290031"
  },
  {
    "name": "Mildred Jakubowski",
    "latitude": 37.83688093576718,
    "longitude": -122.39567938288347,
    "description": "Job Title: District Quality Architect, Credit Card Account: 90809118"
  },
  {
    "name": "Freddie Abernathy",
    "latitude": 37.676012854825856,
    "longitude": -122.331314595591,
    "description": "Job Title: Future Marketing Manager, Personal Loan Account: 27193279"
  },
  {
    "name": "Josefina Emmerich",
    "latitude": 37.73440594053736,
    "longitude": -122.43727328608686,
    "description": "Job Title: Senior Marketing Consultant, Personal Loan Account: 09497415"
  },
  {
    "name": "Sara Ryan",
    "latitude": 37.831762192788965,
    "longitude": -122.38926209773787,
    "description": "Job Title: Central Functionality Associate, Money Market Account: 37680258"
  },
  {
    "name": "Sheryl Zemlak",
    "latitude": 37.71960595470704,
    "longitude": -122.38283175391122,
    "description": "Job Title: Product Intranet Analyst, Investment Account: 79607438"
  },
  {
    "name": "Tamara Muller",
    "latitude": 37.803392748815554,
    "longitude": -122.49587179823169,
    "description": "Job Title: Forward Response Assistant, Savings Account: 33750959"
  },
  {
    "name": "Dallas Kerluke",
    "latitude": 37.77953770719602,
    "longitude": -122.43076712730516,
    "description": "Job Title: Customer Intranet Assistant, Auto Loan Account: 13326072"
  },
  {
    "name": "Johnny Greenholt",
    "latitude": 37.84293272828601,
    "longitude": -122.41052364312984,
    "description": "Job Title: Regional Infrastructure Officer, Savings Account: 65854502"
  },
  {
    "name": "Ross Rosenbaum",
    "latitude": 37.73467373999754,
    "longitude": -122.39310503852978,
    "description": "Job Title: Human Configuration Assistant, Personal Loan Account: 87536597"
  },
  {
    "name": "Randall Rohan",
    "latitude": 37.821056707921905,
    "longitude": -122.48291067002866,
    "description": "Job Title: Lead Functionality Administrator, Savings Account: 74578877"
  },
  {
    "name": "Constance Zieme",
    "latitude": 37.78110153852505,
    "longitude": -122.4119622857843,
    "description": "Job Title: Senior Operations Analyst, Credit Card Account: 71210199"
  },
  {
    "name": "Timothy Feeney",
    "latitude": 37.71744485428538,
    "longitude": -122.47397516328772,
    "description": "Job Title: Internal Communications Assistant, Home Loan Account: 37439775"
  },
  {
    "name": "Glen Osinski",
    "latitude": 37.76837545562909,
    "longitude": -122.44877514045503,
    "description": "Job Title: Chief Identity Coordinator, Checking Account: 53127282"
  },
  {
    "name": "May Kutch",
    "latitude": 37.72514554097203,
    "longitude": -122.46371971103383,
    "description": "Job Title: Chief Solutions Liaison, Checking Account: 96184737"
  },
  {
    "name": "Tracy Windler",
    "latitude": 37.69850437873698,
    "longitude": -122.46962006936526,
    "description": "Job Title: Forward Solutions Associate, Investment Account: 06708201"
  },
  {
    "name": "Eugene Wuckert",
    "latitude": 37.82232789077872,
    "longitude": -122.48101518296795,
    "description": "Job Title: Central Functionality Executive, Investment Account: 58937309"
  },
  {
    "name": "Sheryl Christiansen",
    "latitude": 37.85187326506099,
    "longitude": -122.34156652844152,
    "description": "Job Title: Corporate Creative Representative, Money Market Account: 84932872"
  },
  {
    "name": "Ginger Auer",
    "latitude": 37.67610623837201,
    "longitude": -122.32098523709475,
    "description": "Job Title: Future Communications Director, Savings Account: 34270214"
  },
  {
    "name": "Everett Zboncak Sr.",
    "latitude": 37.71129772238544,
    "longitude": -122.46906027399244,
    "description": "Job Title: Future Data Director, Auto Loan Account: 30139756"
  },
  {
    "name": "Erma Gibson",
    "latitude": 37.77454072078244,
    "longitude": -122.50505610566564,
    "description": "Job Title: Investor Optimization Assistant, Personal Loan Account: 13932674"
  },
  {
    "name": "Johnny Heathcote",
    "latitude": 37.76698220028054,
    "longitude": -122.40760852914461,
    "description": "Job Title: Forward Branding Planner, Personal Loan Account: 03334961"
  },
  {
    "name": "Jodi Skiles MD",
    "latitude": 37.770347774134834,
    "longitude": -122.40945325586068,
    "description": "Job Title: Principal Assurance Designer, Personal Loan Account: 11695418"
  },
  {
    "name": "Joseph Kohler",
    "latitude": 37.74290908881221,
    "longitude": -122.39832636135881,
    "description": "Job Title: Internal Accountability Designer, Credit Card Account: 32090556"
  },
  {
    "name": "Austin Hansen",
    "latitude": 37.8710683396486,
    "longitude": -122.45367719078864,
    "description": "Job Title: Corporate Accountability Developer, Money Market Account: 16058450"
  },
  {
    "name": "Mrs. Krystal Huels",
    "latitude": 37.81484804399457,
    "longitude": -122.45252478243924,
    "description": "Job Title: Central Response Officer, Credit Card Account: 31902188"
  },
  {
    "name": "Marie Gleason",
    "latitude": 37.79578877655279,
    "longitude": -122.47914754804484,
    "description": "Job Title: Dynamic Accountability Representative, Investment Account: 10575101"
  },
  {
    "name": "Olive Stracke",
    "latitude": 37.72392753579117,
    "longitude": -122.3772866019777,
    "description": "Job Title: Regional Integration Assistant, Credit Card Account: 65154499"
  },
  {
    "name": "Joan Heller Sr.",
    "latitude": 37.834755379680736,
    "longitude": -122.3960239855683,
    "description": "Job Title: Corporate Applications Coordinator, Auto Loan Account: 96724763"
  },
  {
    "name": "John Hermann",
    "latitude": 37.736230519363126,
    "longitude": -122.47680401480936,
    "description": "Job Title: Senior Integration Engineer, Money Market Account: 33131154"
  },
  {
    "name": "Hector McCullough",
    "latitude": 37.849450579952475,
    "longitude": -122.33916570423972,
    "description": "Job Title: International Optimization Administrator, Money Market Account: 06274844"
  },
  {
    "name": "Jessie Leuschke",
    "latitude": 37.81229268524616,
    "longitude": -122.49640663686733,
    "description": "Job Title: Direct Optimization Specialist, Investment Account: 03816595"
  },
  {
    "name": "Kenneth Terry",
    "latitude": 37.743133947661065,
    "longitude": -122.42021302104675,
    "description": "Job Title: Corporate Integration Facilitator, Home Loan Account: 53363776"
  },
  {
    "name": "Essie Torphy",
    "latitude": 37.8026445279037,
    "longitude": -122.35706229973299,
    "description": "Job Title: Forward Metrics Liaison, Credit Card Account: 63378097"
  },
  {
    "name": "Danielle Murazik II",
    "latitude": 37.870667060550986,
    "longitude": -122.51391154666142,
    "description": "Job Title: Internal Interactions Engineer, Auto Loan Account: 65588762"
  },
  {
    "name": "Ms. Lawrence Weimann",
    "latitude": 37.81780160164855,
    "longitude": -122.46490537646154,
    "description": "Job Title: Customer Optimization Planner, Credit Card Account: 47369931"
  },
  {
    "name": "Ethel Heathcote",
    "latitude": 37.68085129154265,
    "longitude": -122.47879241270398,
    "description": "Job Title: International Infrastructure Executive, Credit Card Account: 46847108"
  },
  {
    "name": "Myra Stoltenberg",
    "latitude": 37.71773231054866,
    "longitude": -122.50664064218108,
    "description": "Job Title: Dynamic Infrastructure Designer, Personal Loan Account: 27252025"
  },
  {
    "name": "Mathew Corkery",
    "latitude": 37.705323198409765,
    "longitude": -122.39424574485768,
    "description": "Job Title: District Tactics Executive, Credit Card Account: 16807132"
  },
  {
    "name": "Warren Wuckert",
    "latitude": 37.71222154114936,
    "longitude": -122.356873733085,
    "description": "Job Title: Forward Mobility Strategist, Auto Loan Account: 69684026"
  },
  {
    "name": "Krista Little",
    "latitude": 37.78039234641758,
    "longitude": -122.34178047393044,
    "description": "Job Title: Central Infrastructure Assistant, Savings Account: 13744250"
  },
  {
    "name": "Carlos Tremblay",
    "latitude": 37.72060726567327,
    "longitude": -122.36545533298673,
    "description": "Job Title: Investor Usability Director, Investment Account: 62628150"
  },
  {
    "name": "Gina Lemke",
    "latitude": 37.716358203636325,
    "longitude": -122.42234993490834,
    "description": "Job Title: Future Accountability Coordinator, Money Market Account: 73268057"
  },
  {
    "name": "Archie Towne",
    "latitude": 37.828437627398074,
    "longitude": -122.50857377201584,
    "description": "Job Title: Human Marketing Technician, Credit Card Account: 51710395"
  },
  {
    "name": "Lana Reichel",
    "latitude": 37.753867642376726,
    "longitude": -122.46366509376679,
    "description": "Job Title: Investor Program Director, Auto Loan Account: 24596247"
  },
  {
    "name": "Ella Hahn",
    "latitude": 37.67865958572665,
    "longitude": -122.41240827967214,
    "description": "Job Title: Internal Tactics Analyst, Personal Loan Account: 46763074"
  },
  {
    "name": "Mattie Connelly",
    "latitude": 37.83579743514512,
    "longitude": -122.37968756655582,
    "description": "Job Title: Customer Quality Strategist, Personal Loan Account: 05174471"
  },
  {
    "name": "Barry Beahan",
    "latitude": 37.8676328786715,
    "longitude": -122.3574095540191,
    "description": "Job Title: Legacy Infrastructure Assistant, Auto Loan Account: 02565547"
  },
  {
    "name": "Chris Brekke III",
    "latitude": 37.78080236307916,
    "longitude": -122.4133984316127,
    "description": "Job Title: Future Branding Architect, Checking Account: 27556246"
  },
  {
    "name": "Suzanne Torphy",
    "latitude": 37.70190296491246,
    "longitude": -122.37613605698186,
    "description": "Job Title: Global Communications Architect, Savings Account: 25606640"
  },
  {
    "name": "Erica MacGyver",
    "latitude": 37.694082368618766,
    "longitude": -122.49268346311906,
    "description": "Job Title: Corporate Accounts Engineer, Checking Account: 80958075"
  },
  {
    "name": "Regina Parisian",
    "latitude": 37.82765712688169,
    "longitude": -122.4947909778311,
    "description": "Job Title: Global Usability Representative, Money Market Account: 08639935"
  },
  {
    "name": "Claude Wunsch",
    "latitude": 37.69760796440901,
    "longitude": -122.39980619325718,
    "description": "Job Title: Principal Group Technician, Savings Account: 38196054"
  },
  {
    "name": "Andre Williamson",
    "latitude": 37.80869114841295,
    "longitude": -122.46570671301656,
    "description": "Job Title: Principal Tactics Director, Money Market Account: 89469798"
  },
  {
    "name": "Willard Wehner",
    "latitude": 37.85862963238159,
    "longitude": -122.33050101735405,
    "description": "Job Title: Product Identity Representative, Auto Loan Account: 74883267"
  },
  {
    "name": "Dr. Meghan Koch",
    "latitude": 37.86431357638169,
    "longitude": -122.3865518830665,
    "description": "Job Title: Senior Integration Engineer, Savings Account: 14525742"
  },
  {
    "name": "Elsie Gusikowski",
    "latitude": 37.8412014617956,
    "longitude": -122.48768602436708,
    "description": "Job Title: Customer Paradigm Executive, Credit Card Account: 53733829"
  },
  {
    "name": "Kristine Jast",
    "latitude": 37.72321216474457,
    "longitude": -122.38544480830818,
    "description": "Job Title: Future Functionality Coordinator, Money Market Account: 52049819"
  },
  {
    "name": "Ted Windler",
    "latitude": 37.69785772655422,
    "longitude": -122.33775728813006,
    "description": "Job Title: Internal Accounts Analyst, Personal Loan Account: 75243214"
  },
  {
    "name": "Beatrice Feil",
    "latitude": 37.81257332066593,
    "longitude": -122.51651903221138,
    "description": "Job Title: Customer Data Executive, Money Market Account: 99276106"
  },
  {
    "name": "Naomi Rippin",
    "latitude": 37.725390576132966,
    "longitude": -122.35108547628124,
    "description": "Job Title: Future Marketing Officer, Credit Card Account: 09160825"
  },
  {
    "name": "Darrin Lebsack",
    "latitude": 37.70050398616174,
    "longitude": -122.36558696185033,
    "description": "Job Title: Senior Creative Specialist, Money Market Account: 63080614"
  },
  {
    "name": "Frankie McCullough",
    "latitude": 37.687692283537835,
    "longitude": -122.34189976563144,
    "description": "Job Title: Internal Configuration Administrator, Savings Account: 73964633"
  },
  {
    "name": "Kate Jacobi",
    "latitude": 37.6884269449514,
    "longitude": -122.4680285468631,
    "description": "Job Title: Principal Markets Architect, Savings Account: 93376340"
  },
  {
    "name": "Charles Dibbert",
    "latitude": 37.76476497975817,
    "longitude": -122.38837831445451,
    "description": "Job Title: Regional Web Producer, Personal Loan Account: 08824852"
  },
  {
    "name": "Wesley Braun",
    "latitude": 37.807385241673806,
    "longitude": -122.34277070527435,
    "description": "Job Title: Regional Branding Assistant, Investment Account: 70531864"
  },
  {
    "name": "Derrick Hickle",
    "latitude": 37.86064104211393,
    "longitude": -122.32769629449939,
    "description": "Job Title: Investor Directives Planner, Home Loan Account: 39260287"
  },
  {
    "name": "Miss Cody Mueller",
    "latitude": 37.86548559466133,
    "longitude": -122.32395049966053,
    "description": "Job Title: District Program Coordinator, Investment Account: 49226914"
  },
  {
    "name": "Willis Kihn",
    "latitude": 37.7143430762111,
    "longitude": -122.42289185687856,
    "description": "Job Title: Chief Communications Specialist, Credit Card Account: 76042848"
  },
  {
    "name": "Julian Rice",
    "latitude": 37.84217332868292,
    "longitude": -122.50273223001356,
    "description": "Job Title: Chief Accountability Producer, Personal Loan Account: 43746299"
  },
  {
    "name": "Roxanne Kulas",
    "latitude": 37.819863473649264,
    "longitude": -122.45864290907612,
    "description": "Job Title: Customer Operations Designer, Money Market Account: 64362315"
  },
  {
    "name": "Roosevelt Abernathy",
    "latitude": 37.734618371015976,
    "longitude": -122.47006503370427,
    "description": "Job Title: Future Branding Officer, Savings Account: 65654264"
  },
  {
    "name": "Kenny Gorczany",
    "latitude": 37.81218907511451,
    "longitude": -122.4378533314593,
    "description": "Job Title: Lead Applications Consultant, Investment Account: 07895839"
  },
  {
    "name": "Hazel Feest",
    "latitude": 37.867281824197086,
    "longitude": -122.4437221483283,
    "description": "Job Title: Direct Group Facilitator, Personal Loan Account: 32319621"
  },
  {
    "name": "Edgar Wolf II",
    "latitude": 37.78528244750812,
    "longitude": -122.51808020679167,
    "description": "Job Title: Customer Usability Technician, Money Market Account: 73195886"
  },
  {
    "name": "Lynn Mante",
    "latitude": 37.80612295082034,
    "longitude": -122.35409463165561,
    "description": "Job Title: Central Implementation Technician, Personal Loan Account: 75371757"
  },
  {
    "name": "Rochelle Bernier",
    "latitude": 37.870010651403305,
    "longitude": -122.40885470175199,
    "description": "Job Title: Senior Research Developer, Credit Card Account: 87356729"
  },
  {
    "name": "Mr. Christian Turcotte",
    "latitude": 37.70023690063277,
    "longitude": -122.44036085554015,
    "description": "Job Title: Legacy Accounts Director, Home Loan Account: 26615568"
  },
  {
    "name": "Darryl McKenzie DVM",
    "latitude": 37.75500529134219,
    "longitude": -122.42346993182156,
    "description": "Job Title: Internal Configuration Executive, Money Market Account: 64144816"
  },
  {
    "name": "Francis Bins",
    "latitude": 37.86239139921492,
    "longitude": -122.43351945370603,
    "description": "Job Title: Global Implementation Facilitator, Money Market Account: 67904185"
  },
  {
    "name": "Henrietta Kihn",
    "latitude": 37.77363152471734,
    "longitude": -122.4945650747498,
    "description": "Job Title: International Intranet Planner, Personal Loan Account: 55482161"
  },
  {
    "name": "Homer Roob I",
    "latitude": 37.75267503280992,
    "longitude": -122.35200009575583,
    "description": "Job Title: Lead Accounts Executive, Auto Loan Account: 15857259"
  },
  {
    "name": "Robyn Dickinson",
    "latitude": 37.7524042805415,
    "longitude": -122.44772858215877,
    "description": "Job Title: Product Response Strategist, Home Loan Account: 00055000"
  },
  {
    "name": "Nellie Cummings",
    "latitude": 37.83256871566187,
    "longitude": -122.32119746980382,
    "description": "Job Title: Global Identity Coordinator, Credit Card Account: 96517719"
  },
  {
    "name": "Jessica Moen",
    "latitude": 37.85573322361206,
    "longitude": -122.37669637409857,
    "description": "Job Title: Customer Accounts Manager, Investment Account: 75426433"
  },
  {
    "name": "Emma Quigley",
    "latitude": 37.68348637480971,
    "longitude": -122.41760717680316,
    "description": "Job Title: Direct Factors Facilitator, Money Market Account: 21935086"
  },
  {
    "name": "Seth Bergstrom",
    "latitude": 37.701629249100066,
    "longitude": -122.49671556979432,
    "description": "Job Title: District Security Analyst, Checking Account: 18535731"
  },
  {
    "name": "Brett Thiel",
    "latitude": 37.79266997948796,
    "longitude": -122.37231871045311,
    "description": "Job Title: Chief Infrastructure Engineer, Auto Loan Account: 46385279"
  },
  {
    "name": "Bessie Schumm Jr.",
    "latitude": 37.77092579226828,
    "longitude": -122.4246096142297,
    "description": "Job Title: Principal Directives Director, Credit Card Account: 35504441"
  },
  {
    "name": "Saul Abernathy",
    "latitude": 37.83203298552896,
    "longitude": -122.44389788961232,
    "description": "Job Title: International Implementation Agent, Home Loan Account: 13621970"
  },
  {
    "name": "Eric Cronin",
    "latitude": 37.76228994788639,
    "longitude": -122.49403373469856,
    "description": "Job Title: Lead Operations Associate, Credit Card Account: 41945432"
  },
  {
    "name": "Ms. Sheldon Rutherford",
    "latitude": 37.74725852424246,
    "longitude": -122.47678800346834,
    "description": "Job Title: Future Accounts Architect, Money Market Account: 62059478"
  },
  {
    "name": "Morris Doyle",
    "latitude": 37.68234952419218,
    "longitude": -122.37763093029929,
    "description": "Job Title: Corporate Communications Associate, Personal Loan Account: 97978560"
  },
  {
    "name": "Virginia Kihn",
    "latitude": 37.85736814336474,
    "longitude": -122.43051306211287,
    "description": "Job Title: Corporate Quality Coordinator, Checking Account: 80210135"
  },
  {
    "name": "Tricia Muller",
    "latitude": 37.788386536488474,
    "longitude": -122.35083247529643,
    "description": "Job Title: Legacy Operations Assistant, Home Loan Account: 35005564"
  },
  {
    "name": "Claudia Wintheiser DVM",
    "latitude": 37.819969201080674,
    "longitude": -122.45646139418719,
    "description": "Job Title: Principal Mobility Agent, Personal Loan Account: 87420879"
  },
  {
    "name": "Marcus Ritchie",
    "latitude": 37.832952502712835,
    "longitude": -122.35489343352378,
    "description": "Job Title: International Solutions Consultant, Home Loan Account: 35860286"
  },
  {
    "name": "Olga Mueller",
    "latitude": 37.76083573009718,
    "longitude": -122.35942239621325,
    "description": "Job Title: Product Tactics Designer, Credit Card Account: 52863088"
  },
  {
    "name": "Bradford Ritchie",
    "latitude": 37.737513345381956,
    "longitude": -122.34425498234536,
    "description": "Job Title: Principal Directives Associate, Credit Card Account: 64974844"
  },
  {
    "name": "Fannie Mante",
    "latitude": 37.736197537369065,
    "longitude": -122.39258917740958,
    "description": "Job Title: Lead Quality Agent, Savings Account: 95377120"
  },
  {
    "name": "Caleb Hartmann",
    "latitude": 37.86102020754482,
    "longitude": -122.37231370941446,
    "description": "Job Title: District Group Assistant, Checking Account: 16646022"
  },
  {
    "name": "Leon Kutch",
    "latitude": 37.74545014053147,
    "longitude": -122.3935758234153,
    "description": "Job Title: Legacy Accounts Consultant, Personal Loan Account: 42368489"
  },
  {
    "name": "Luther White",
    "latitude": 37.7570472854782,
    "longitude": -122.36159786596873,
    "description": "Job Title: Direct Markets Agent, Checking Account: 85566892"
  },
  {
    "name": "Tracy Cormier",
    "latitude": 37.72373248619122,
    "longitude": -122.45632066982061,
    "description": "Job Title: National Markets Consultant, Checking Account: 75712061"
  },
  {
    "name": "Anita Renner IV",
    "latitude": 37.7561889419047,
    "longitude": -122.44617579799711,
    "description": "Job Title: Corporate Communications Executive, Auto Loan Account: 49629481"
  },
  {
    "name": "Courtney Schaefer",
    "latitude": 37.68317156291205,
    "longitude": -122.44277368893235,
    "description": "Job Title: Forward Intranet Liaison, Credit Card Account: 85437705"
  },
  {
    "name": "Ms. Walter Schamberger I",
    "latitude": 37.77090175311509,
    "longitude": -122.32080108781166,
    "description": "Job Title: Global Implementation Technician, Auto Loan Account: 95268408"
  },
  {
    "name": "Blanca Bechtelar",
    "latitude": 37.727454823658945,
    "longitude": -122.43686311047928,
    "description": "Job Title: Principal Solutions Assistant, Personal Loan Account: 34754836"
  },
  {
    "name": "Ramon Price",
    "latitude": 37.69430282588138,
    "longitude": -122.3960794409556,
    "description": "Job Title: District Infrastructure Associate, Home Loan Account: 73248026"
  },
  {
    "name": "Juan Koss",
    "latitude": 37.6799503925918,
    "longitude": -122.3456566925792,
    "description": "Job Title: Corporate Accounts Agent, Home Loan Account: 58226859"
  },
  {
    "name": "Bonnie Daugherty",
    "latitude": 37.839860106324416,
    "longitude": -122.37255830885583,
    "description": "Job Title: Lead Solutions Administrator, Personal Loan Account: 60030100"
  },
  {
    "name": "Cecil Brown",
    "latitude": 37.76121668873096,
    "longitude": -122.51450345382577,
    "description": "Job Title: Customer Research Officer, Personal Loan Account: 68808388"
  },
  {
    "name": "Katie Koss",
    "latitude": 37.707239514856376,
    "longitude": -122.37561016450731,
    "description": "Job Title: Investor Brand Facilitator, Investment Account: 87216913"
  },
  {
    "name": "Miss Joshua Beer",
    "latitude": 37.69906061887801,
    "longitude": -122.38395292134578,
    "description": "Job Title: Dynamic Research Producer, Investment Account: 21911095"
  },
  {
    "name": "Ronald Kub",
    "latitude": 37.814828085984686,
    "longitude": -122.39881694862702,
    "description": "Job Title: Principal Functionality Orchestrator, Personal Loan Account: 55840495"
  },
  {
    "name": "Carlton Schroeder",
    "latitude": 37.837910270286805,
    "longitude": -122.40423857931474,
    "description": "Job Title: Dynamic Implementation Planner, Investment Account: 14499010"
  },
  {
    "name": "Rachel Lakin",
    "latitude": 37.74586739771425,
    "longitude": -122.5104271650219,
    "description": "Job Title: Dynamic Functionality Technician, Credit Card Account: 52361187"
  },
  {
    "name": "Kristi Cartwright",
    "latitude": 37.7573527150924,
    "longitude": -122.45187431686331,
    "description": "Job Title: Corporate Assurance Assistant, Credit Card Account: 86438622"
  },
  {
    "name": "Mrs. Corey Hoppe",
    "latitude": 37.772897726465395,
    "longitude": -122.4200713973998,
    "description": "Job Title: Product Data Specialist, Checking Account: 41948861"
  },
  {
    "name": "Sherri Bechtelar",
    "latitude": 37.814736382774974,
    "longitude": -122.31958273791898,
    "description": "Job Title: Dynamic Group Strategist, Credit Card Account: 66308667"
  },
  {
    "name": "Chris Nolan",
    "latitude": 37.744426490855524,
    "longitude": -122.51009760103972,
    "description": "Job Title: Lead Creative Technician, Checking Account: 59710222"
  },
  {
    "name": "Lorena Funk",
    "latitude": 37.68008554775543,
    "longitude": -122.47954345970975,
    "description": "Job Title: Product Intranet Planner, Checking Account: 35418424"
  },
  {
    "name": "Constance Fay",
    "latitude": 37.71785318878002,
    "longitude": -122.37920296302902,
    "description": "Job Title: Product Solutions Producer, Credit Card Account: 06364275"
  },
  {
    "name": "Pam White",
    "latitude": 37.85725503986597,
    "longitude": -122.46533488366045,
    "description": "Job Title: Future Functionality Orchestrator, Checking Account: 50357984"
  },
  {
    "name": "Harold Deckow I",
    "latitude": 37.81890204155649,
    "longitude": -122.3926650856953,
    "description": "Job Title: Central Security Architect, Money Market Account: 67274832"
  },
  {
    "name": "Mr. Deanna Romaguera",
    "latitude": 37.855959534472056,
    "longitude": -122.44340940972151,
    "description": "Job Title: Regional Tactics Facilitator, Savings Account: 67102207"
  },
  {
    "name": "Vivian Ortiz",
    "latitude": 37.69672881632034,
    "longitude": -122.46562615663831,
    "description": "Job Title: Internal Solutions Engineer, Credit Card Account: 28573685"
  },
  {
    "name": "Toby Hane",
    "latitude": 37.80339982471039,
    "longitude": -122.39074751124032,
    "description": "Job Title: Chief Mobility Administrator, Credit Card Account: 24895328"
  },
  {
    "name": "Dr. Phyllis Carter",
    "latitude": 37.69600115069857,
    "longitude": -122.50518963515425,
    "description": "Job Title: Product Creative Manager, Checking Account: 15232075"
  },
  {
    "name": "Kathleen Batz",
    "latitude": 37.809093871799696,
    "longitude": -122.47735717302707,
    "description": "Job Title: Product Intranet Producer, Home Loan Account: 58505226"
  },
  {
    "name": "Wanda Wolff",
    "latitude": 37.85683647952893,
    "longitude": -122.41454905069536,
    "description": "Job Title: Product Data Analyst, Home Loan Account: 34887464"
  },
  {
    "name": "Ms. Greg Little",
    "latitude": 37.74668429407316,
    "longitude": -122.41850100492566,
    "description": "Job Title: Internal Division Supervisor, Checking Account: 04595708"
  },
  {
    "name": "Johanna Walsh",
    "latitude": 37.742185152938085,
    "longitude": -122.50542054160685,
    "description": "Job Title: Lead Brand Orchestrator, Home Loan Account: 69764513"
  },
  {
    "name": "Maureen Huel",
    "latitude": 37.872927444593536,
    "longitude": -122.35824972694523,
    "description": "Job Title: Direct Optimization Associate, Auto Loan Account: 29055538"
  },
  {
    "name": "Allen Jenkins PhD",
    "latitude": 37.812422719550085,
    "longitude": -122.42251702930795,
    "description": "Job Title: Dynamic Group Architect, Investment Account: 27125765"
  },
  {
    "name": "Dwayne Stokes",
    "latitude": 37.697707624131574,
    "longitude": -122.51857205291017,
    "description": "Job Title: Product Communications Officer, Credit Card Account: 49874256"
  },
  {
    "name": "Roy Adams",
    "latitude": 37.70083861914979,
    "longitude": -122.42460502174276,
    "description": "Job Title: Regional Communications Designer, Checking Account: 14578663"
  },
  {
    "name": "Darryl Jacobson",
    "latitude": 37.86392990724024,
    "longitude": -122.41818866082505,
    "description": "Job Title: Product Mobility Analyst, Personal Loan Account: 02498275"
  },
  {
    "name": "Lori Koch",
    "latitude": 37.87077151632802,
    "longitude": -122.41358248639104,
    "description": "Job Title: Principal Security Designer, Money Market Account: 56536521"
  },
  {
    "name": "Julio Parisian",
    "latitude": 37.82460410027094,
    "longitude": -122.44257453477945,
    "description": "Job Title: Customer Accountability Administrator, Credit Card Account: 98220087"
  },
  {
    "name": "Theodore Osinski",
    "latitude": 37.833024932901274,
    "longitude": -122.33029263992282,
    "description": "Job Title: Lead Mobility Associate, Auto Loan Account: 10823182"
  },
  {
    "name": "Laura O'Conner",
    "latitude": 37.77690309822855,
    "longitude": -122.41672644182194,
    "description": "Job Title: Human Division Engineer, Checking Account: 77618699"
  },
  {
    "name": "Amanda Hegmann",
    "latitude": 37.70998077804757,
    "longitude": -122.41776699003138,
    "description": "Job Title: District Functionality Analyst, Personal Loan Account: 22851419"
  },
  {
    "name": "Miriam Graham",
    "latitude": 37.7952628184799,
    "longitude": -122.47959181298661,
    "description": "Job Title: Investor Web Orchestrator, Personal Loan Account: 59458199"
  },
  {
    "name": "Eddie Hartmann",
    "latitude": 37.80801582353744,
    "longitude": -122.32748666605862,
    "description": "Job Title: Investor Program Coordinator, Checking Account: 76633131"
  },
  {
    "name": "Elsie Marquardt",
    "latitude": 37.820724031878946,
    "longitude": -122.51739338532924,
    "description": "Job Title: Central Identity Orchestrator, Credit Card Account: 29221821"
  },
  {
    "name": "Gregg Heaney",
    "latitude": 37.77794921950502,
    "longitude": -122.4483369326993,
    "description": "Job Title: International Identity Assistant, Savings Account: 40836624"
  },
  {
    "name": "Carolyn Hartmann",
    "latitude": 37.77011746470407,
    "longitude": -122.47665352048665,
    "description": "Job Title: Customer Functionality Analyst, Auto Loan Account: 55797919"
  },
  {
    "name": "Bernadette Marquardt",
    "latitude": 37.80619678274767,
    "longitude": -122.48349232728556,
    "description": "Job Title: National Intranet Coordinator, Home Loan Account: 75181083"
  },
  {
    "name": "Jeffery O'Conner",
    "latitude": 37.69347282920234,
    "longitude": -122.40677540424349,
    "description": "Job Title: Corporate Division Analyst, Personal Loan Account: 45131296"
  },
  {
    "name": "Jordan Veum",
    "latitude": 37.79538824577774,
    "longitude": -122.47116595749102,
    "description": "Job Title: Direct Response Planner, Investment Account: 71832993"
  },
  {
    "name": "Dr. Carlton Franey",
    "latitude": 37.84841328811411,
    "longitude": -122.38089855783916,
    "description": "Job Title: Forward Accounts Assistant, Home Loan Account: 26292116"
  },
  {
    "name": "Sherman Howe IV",
    "latitude": 37.67574707100066,
    "longitude": -122.50100825087623,
    "description": "Job Title: Dynamic Research Developer, Money Market Account: 88199460"
  },
  {
    "name": "Angelina Beer",
    "latitude": 37.684546878542136,
    "longitude": -122.4560073248055,
    "description": "Job Title: Dynamic Mobility Administrator, Auto Loan Account: 82903352"
  },
  {
    "name": "Esther Aufderhar",
    "latitude": 37.72447632288583,
    "longitude": -122.45969509169925,
    "description": "Job Title: International Identity Consultant, Home Loan Account: 00830721"
  },
  {
    "name": "Dora Monahan",
    "latitude": 37.68023003209839,
    "longitude": -122.32379150521386,
    "description": "Job Title: Regional Data Assistant, Home Loan Account: 57285398"
  },
  {
    "name": "Lorraine Graham",
    "latitude": 37.72928923909246,
    "longitude": -122.33511217635197,
    "description": "Job Title: District Tactics Officer, Personal Loan Account: 40670691"
  },
  {
    "name": "Wilfred Marvin",
    "latitude": 37.70808485786121,
    "longitude": -122.51851642140241,
    "description": "Job Title: National Applications Strategist, Personal Loan Account: 48472216"
  },
  {
    "name": "Celia Harris",
    "latitude": 37.704377247333845,
    "longitude": -122.37162297153215,
    "description": "Job Title: Central Data Agent, Personal Loan Account: 77402522"
  },
  {
    "name": "Lois Heaney",
    "latitude": 37.69895349811688,
    "longitude": -122.40414072438381,
    "description": "Job Title: Regional Markets Planner, Investment Account: 34527197"
  },
  {
    "name": "Margarita O'Keefe",
    "latitude": 37.71954991115866,
    "longitude": -122.46944299164527,
    "description": "Job Title: Future Interactions Engineer, Investment Account: 72311384"
  },
  {
    "name": "Dr. James Schoen",
    "latitude": 37.702114442443445,
    "longitude": -122.44688539388292,
    "description": "Job Title: Product Usability Orchestrator, Checking Account: 60647450"
  },
  {
    "name": "Leona O'Conner",
    "latitude": 37.67989593472167,
    "longitude": -122.39036764538704,
    "description": "Job Title: Principal Usability Officer, Money Market Account: 92938604"
  },
  {
    "name": "Timothy Cummerata",
    "latitude": 37.76527297063095,
    "longitude": -122.40185204741624,
    "description": "Job Title: Central Optimization Technician, Personal Loan Account: 19472203"
  },
  {
    "name": "Cody Swift",
    "latitude": 37.80595186370249,
    "longitude": -122.41334209565491,
    "description": "Job Title: Corporate Program Developer, Savings Account: 59899626"
  },
  {
    "name": "Harriet Jerde",
    "latitude": 37.69032831669226,
    "longitude": -122.46247079126454,
    "description": "Job Title: International Infrastructure Architect, Savings Account: 99673434"
  },
  {
    "name": "Ann Nienow",
    "latitude": 37.86429163604573,
    "longitude": -122.51691668125157,
    "description": "Job Title: Internal Mobility Specialist, Savings Account: 63259010"
  },
  {
    "name": "Rosemarie Durgan",
    "latitude": 37.85262551491526,
    "longitude": -122.37557979637421,
    "description": "Job Title: International Infrastructure Supervisor, Checking Account: 71589835"
  },
  {
    "name": "Joe Hilll",
    "latitude": 37.733903291790554,
    "longitude": -122.36357263406201,
    "description": "Job Title: Corporate Brand Strategist, Savings Account: 22533911"
  },
  {
    "name": "Eileen Boyer",
    "latitude": 37.82776196730495,
    "longitude": -122.4417901839013,
    "description": "Job Title: Principal Accountability Director, Checking Account: 55773499"
  },
  {
    "name": "Nettie Brekke",
    "latitude": 37.864219029567195,
    "longitude": -122.408725229353,
    "description": "Job Title: Product Group Coordinator, Investment Account: 34516315"
  },
  {
    "name": "Leslie Considine",
    "latitude": 37.713622863448954,
    "longitude": -122.34807945154647,
    "description": "Job Title: Regional Markets Producer, Personal Loan Account: 69635509"
  },
  {
    "name": "Wilfred Toy",
    "latitude": 37.73370176856838,
    "longitude": -122.37948435834802,
    "description": "Job Title: Central Assurance Administrator, Investment Account: 30433798"
  },
  {
    "name": "Charlie Jakubowski",
    "latitude": 37.71691026203998,
    "longitude": -122.49521379855432,
    "description": "Job Title: Internal Accounts Developer, Savings Account: 24669027"
  },
  {
    "name": "Gladys Roob",
    "latitude": 37.85297224001061,
    "longitude": -122.38992064986665,
    "description": "Job Title: Future Communications Analyst, Investment Account: 30555110"
  },
  {
    "name": "Nancy Hermann",
    "latitude": 37.823118853139384,
    "longitude": -122.41292291014939,
    "description": "Job Title: Principal Brand Developer, Auto Loan Account: 52259156"
  },
  {
    "name": "Mercedes Russel",
    "latitude": 37.74602447456912,
    "longitude": -122.3355789790535,
    "description": "Job Title: Investor Metrics Analyst, Credit Card Account: 61880189"
  },
  {
    "name": "Miss Tricia Will",
    "latitude": 37.87104566794525,
    "longitude": -122.32351584066635,
    "description": "Job Title: Human Usability Coordinator, Checking Account: 44512592"
  },
  {
    "name": "Sylvia Emard",
    "latitude": 37.796483268934985,
    "longitude": -122.47088430875382,
    "description": "Job Title: Direct Division Facilitator, Checking Account: 49884002"
  },
  {
    "name": "Evelyn Bergnaum Sr.",
    "latitude": 37.83510535750763,
    "longitude": -122.39815808150252,
    "description": "Job Title: Regional Research Specialist, Credit Card Account: 97320564"
  },
  {
    "name": "Michael Langworth V",
    "latitude": 37.86455954656735,
    "longitude": -122.35411996911677,
    "description": "Job Title: Human Infrastructure Facilitator, Home Loan Account: 21758651"
  },
  {
    "name": "Florence Howell",
    "latitude": 37.8295685980877,
    "longitude": -122.46365734213433,
    "description": "Job Title: Forward Operations Analyst, Checking Account: 66446536"
  },
  {
    "name": "Isaac White",
    "latitude": 37.85885590094622,
    "longitude": -122.4582057448327,
    "description": "Job Title: Lead Applications Strategist, Money Market Account: 08081028"
  },
  {
    "name": "Samuel Hagenes",
    "latitude": 37.86217683042146,
    "longitude": -122.37295159491222,
    "description": "Job Title: Direct Accountability Coordinator, Credit Card Account: 99387163"
  },
  {
    "name": "Annette O'Hara",
    "latitude": 37.78979491661627,
    "longitude": -122.46003662041895,
    "description": "Job Title: District Factors Associate, Personal Loan Account: 82617834"
  },
  {
    "name": "Ms. Ann Osinski",
    "latitude": 37.77814389146542,
    "longitude": -122.44392490565352,
    "description": "Job Title: Forward Factors Consultant, Money Market Account: 84915809"
  },
  {
    "name": "Ms. Elbert Cremin",
    "latitude": 37.71504470923646,
    "longitude": -122.50344568508356,
    "description": "Job Title: Global Metrics Specialist, Personal Loan Account: 28995948"
  },
  {
    "name": "Donna Nicolas",
    "latitude": 37.828771683990986,
    "longitude": -122.35980016343005,
    "description": "Job Title: Senior Branding Analyst, Auto Loan Account: 80118691"
  },
  {
    "name": "Loren Franey",
    "latitude": 37.7918976212577,
    "longitude": -122.32815020311436,
    "description": "Job Title: Principal Factors Representative, Credit Card Account: 25735931"
  },
  {
    "name": "Edmond King",
    "latitude": 37.81625332433231,
    "longitude": -122.47634380575668,
    "description": "Job Title: Legacy Intranet Specialist, Personal Loan Account: 99368327"
  },
  {
    "name": "Jody Cummings",
    "latitude": 37.77070269511748,
    "longitude": -122.41453874048153,
    "description": "Job Title: Future Division Producer, Checking Account: 00396284"
  },
  {
    "name": "Israel Ortiz",
    "latitude": 37.79448150164891,
    "longitude": -122.3412919704228,
    "description": "Job Title: District Data Director, Personal Loan Account: 61555278"
  },
  {
    "name": "Angela Jacobson",
    "latitude": 37.814109034239635,
    "longitude": -122.40426988591673,
    "description": "Job Title: Central Metrics Facilitator, Credit Card Account: 47499321"
  },
  {
    "name": "Daryl Ortiz",
    "latitude": 37.755030137919555,
    "longitude": -122.47746450006207,
    "description": "Job Title: Forward Implementation Liaison, Auto Loan Account: 21714663"
  },
  {
    "name": "Martin Kunde Jr.",
    "latitude": 37.69386123470195,
    "longitude": -122.36238431605359,
    "description": "Job Title: Central Integration Director, Savings Account: 05050006"
  },
  {
    "name": "Betty Crooks",
    "latitude": 37.86813257107511,
    "longitude": -122.41346836185271,
    "description": "Job Title: Product Paradigm Coordinator, Savings Account: 48021064"
  },
  {
    "name": "Ernestine Hackett",
    "latitude": 37.745879391822676,
    "longitude": -122.38918507760769,
    "description": "Job Title: Lead Quality Officer, Auto Loan Account: 47959907"
  },
  {
    "name": "Dale Gusikowski",
    "latitude": 37.83121123866992,
    "longitude": -122.32653472824518,
    "description": "Job Title: Future Implementation Coordinator, Money Market Account: 64124598"
  },
  {
    "name": "Gustavo Hintz",
    "latitude": 37.74342828749168,
    "longitude": -122.43347396756087,
    "description": "Job Title: International Solutions Supervisor, Investment Account: 48781060"
  },
  {
    "name": "Clinton Parker",
    "latitude": 37.74248016892825,
    "longitude": -122.34407415071546,
    "description": "Job Title: Chief Branding Developer, Savings Account: 98304965"
  },
  {
    "name": "Lucas Hettinger",
    "latitude": 37.84767378165768,
    "longitude": -122.51706978696926,
    "description": "Job Title: Lead Web Designer, Investment Account: 94437533"
  },
  {
    "name": "Gladys Jast",
    "latitude": 37.836209775613895,
    "longitude": -122.36223003249765,
    "description": "Job Title: Customer Communications Officer, Money Market Account: 07616988"
  },
  {
    "name": "Hannah Mohr",
    "latitude": 37.69037962158791,
    "longitude": -122.3978778483821,
    "description": "Job Title: Forward Functionality Liaison, Personal Loan Account: 75632932"
  },
  {
    "name": "George Smitham",
    "latitude": 37.84816995459215,
    "longitude": -122.37136740164945,
    "description": "Job Title: Customer Assurance Coordinator, Money Market Account: 23251530"
  },
  {
    "name": "Ramiro Hahn",
    "latitude": 37.702692157228896,
    "longitude": -122.47215314191516,
    "description": "Job Title: Lead Branding Designer, Home Loan Account: 73278384"
  },
  {
    "name": "Mr. Rene Lowe",
    "latitude": 37.87345416308438,
    "longitude": -122.50112461889971,
    "description": "Job Title: Principal Interactions Specialist, Investment Account: 09949476"
  },
  {
    "name": "Rosie Donnelly",
    "latitude": 37.84780405069033,
    "longitude": -122.39095936663003,
    "description": "Job Title: Global Accountability Manager, Checking Account: 76584348"
  },
  {
    "name": "Willie Fisher",
    "latitude": 37.73912048756867,
    "longitude": -122.38740545297317,
    "description": "Job Title: Senior Brand Analyst, Checking Account: 12407648"
  },
  {
    "name": "Fredrick Hane",
    "latitude": 37.86979966193483,
    "longitude": -122.39907228889953,
    "description": "Job Title: International Solutions Director, Money Market Account: 63042639"
  },
  {
    "name": "Vera Lockman",
    "latitude": 37.75154907714376,
    "longitude": -122.43900821548509,
    "description": "Job Title: Senior Metrics Strategist, Savings Account: 80986250"
  },
  {
    "name": "Leona Bradtke PhD",
    "latitude": 37.86587579136613,
    "longitude": -122.37285036085372,
    "description": "Job Title: International Accountability Strategist, Checking Account: 14152214"
  },
  {
    "name": "Elvira Murphy",
    "latitude": 37.750485591578496,
    "longitude": -122.44836495524898,
    "description": "Job Title: Customer Paradigm Orchestrator, Investment Account: 05985033"
  },
  {
    "name": "Cheryl Beier",
    "latitude": 37.748859009564576,
    "longitude": -122.41690579021879,
    "description": "Job Title: Principal Optimization Associate, Investment Account: 46125123"
  },
  {
    "name": "Laurence Wilkinson III",
    "latitude": 37.75493940659462,
    "longitude": -122.37057238608226,
    "description": "Job Title: Senior Accountability Agent, Auto Loan Account: 34807186"
  },
  {
    "name": "Wesley Hartmann",
    "latitude": 37.70633225326486,
    "longitude": -122.45819647110655,
    "description": "Job Title: Forward Applications Coordinator, Savings Account: 17247147"
  },
  {
    "name": "Sheila Spinka",
    "latitude": 37.71184852820747,
    "longitude": -122.50615335255866,
    "description": "Job Title: Global Operations Liaison, Savings Account: 58537642"
  },
  {
    "name": "Nancy Hintz",
    "latitude": 37.8417890289938,
    "longitude": -122.35817829908075,
    "description": "Job Title: Forward Data Representative, Savings Account: 19237226"
  },
  {
    "name": "Geraldine Pfannerstill",
    "latitude": 37.72523330086082,
    "longitude": -122.37673276728138,
    "description": "Job Title: Senior Division Producer, Investment Account: 96622750"
  },
  {
    "name": "Mike Stamm",
    "latitude": 37.79279969638399,
    "longitude": -122.48196560618001,
    "description": "Job Title: Principal Metrics Director, Savings Account: 93152535"
  },
  {
    "name": "Jeff Turner",
    "latitude": 37.8503614747758,
    "longitude": -122.3571250858182,
    "description": "Job Title: Product Interactions Planner, Auto Loan Account: 53483675"
  },
  {
    "name": "Anne Wunsch",
    "latitude": 37.87113239358073,
    "longitude": -122.39853072357458,
    "description": "Job Title: International Research Orchestrator, Money Market Account: 37597828"
  },
  {
    "name": "Gertrude Funk",
    "latitude": 37.70106771591894,
    "longitude": -122.50454716919853,
    "description": "Job Title: National Division Strategist, Credit Card Account: 43444460"
  },
  {
    "name": "Ms. Mattie Connelly",
    "latitude": 37.76793497259161,
    "longitude": -122.41312474901837,
    "description": "Job Title: Direct Integration Officer, Money Market Account: 92663112"
  },
  {
    "name": "Brandon Runte",
    "latitude": 37.86459865606088,
    "longitude": -122.51758387811302,
    "description": "Job Title: Human Assurance Liaison, Credit Card Account: 78203426"
  },
  {
    "name": "Dr. Lillian Lindgren",
    "latitude": 37.83123837006422,
    "longitude": -122.38493030861416,
    "description": "Job Title: Chief Creative Producer, Personal Loan Account: 41865384"
  },
  {
    "name": "Kirk Goldner",
    "latitude": 37.71934424234979,
    "longitude": -122.4244510855547,
    "description": "Job Title: Legacy Optimization Orchestrator, Savings Account: 01381584"
  },
  {
    "name": "Peggy Medhurst",
    "latitude": 37.730275351915026,
    "longitude": -122.48085996391984,
    "description": "Job Title: Lead Division Strategist, Investment Account: 71101250"
  },
  {
    "name": "Eunice Haley",
    "latitude": 37.8183961571766,
    "longitude": -122.35810576601769,
    "description": "Job Title: Corporate Brand Architect, Home Loan Account: 99149745"
  },
  {
    "name": "Ms. Robin Howe",
    "latitude": 37.751267483447265,
    "longitude": -122.46259805841264,
    "description": "Job Title: Future Directives Director, Money Market Account: 90281274"
  },
  {
    "name": "Ms. Jeff Durgan",
    "latitude": 37.845928405542274,
    "longitude": -122.43207997724738,
    "description": "Job Title: District Assurance Manager, Home Loan Account: 85756757"
  },
  {
    "name": "Rudolph Kovacek",
    "latitude": 37.77546554105973,
    "longitude": -122.39213279381676,
    "description": "Job Title: Customer Research Orchestrator, Investment Account: 94535151"
  },
  {
    "name": "Brittany Beier",
    "latitude": 37.82796692561513,
    "longitude": -122.5045626475222,
    "description": "Job Title: Future Intranet Architect, Auto Loan Account: 25055499"
  },
  {
    "name": "Miss Homer Mraz",
    "latitude": 37.823932109687526,
    "longitude": -122.35750747622298,
    "description": "Job Title: Senior Accountability Designer, Savings Account: 05030188"
  },
  {
    "name": "Lucas Raynor",
    "latitude": 37.6912806127923,
    "longitude": -122.49788987647375,
    "description": "Job Title: Global Identity Supervisor, Checking Account: 69726872"
  },
  {
    "name": "Ms. Chester Mohr",
    "latitude": 37.70373332901685,
    "longitude": -122.32234525662847,
    "description": "Job Title: Global Group Representative, Money Market Account: 40714052"
  },
  {
    "name": "Candice Heidenreich IV",
    "latitude": 37.752849882546144,
    "longitude": -122.4906234031831,
    "description": "Job Title: Lead Operations Consultant, Investment Account: 05802123"
  },
  {
    "name": "Melody Parisian",
    "latitude": 37.78286816607204,
    "longitude": -122.46328742145538,
    "description": "Job Title: Investor Communications Facilitator, Money Market Account: 68730251"
  },
  {
    "name": "Sammy Grant",
    "latitude": 37.698355002768686,
    "longitude": -122.47897888058732,
    "description": "Job Title: Global Applications Architect, Money Market Account: 16851393"
  },
  {
    "name": "Angelina Green",
    "latitude": 37.80446187364029,
    "longitude": -122.31901713247397,
    "description": "Job Title: Corporate Data Strategist, Personal Loan Account: 07636853"
  },
  {
    "name": "Angela Barrows",
    "latitude": 37.69660773890944,
    "longitude": -122.34542371109723,
    "description": "Job Title: Customer Group Specialist, Personal Loan Account: 14007126"
  },
  {
    "name": "Julie Marquardt",
    "latitude": 37.6822111082029,
    "longitude": -122.45477529144136,
    "description": "Job Title: Global Security Representative, Savings Account: 07225208"
  },
  {
    "name": "Bobby Jast",
    "latitude": 37.845037877807734,
    "longitude": -122.33154612464563,
    "description": "Job Title: Regional Marketing Liaison, Investment Account: 34546822"
  },
  {
    "name": "Susan Kilback",
    "latitude": 37.73158174736684,
    "longitude": -122.41435326637028,
    "description": "Job Title: Global Quality Consultant, Personal Loan Account: 80532303"
  },
  {
    "name": "Johnathan Mueller",
    "latitude": 37.820227347731425,
    "longitude": -122.44471929963198,
    "description": "Job Title: Internal Security Representative, Money Market Account: 75727534"
  },
  {
    "name": "Winifred Pfannerstill",
    "latitude": 37.8425620839504,
    "longitude": -122.43099836788767,
    "description": "Job Title: Principal Communications Designer, Savings Account: 01926743"
  },
  {
    "name": "Jermaine Paucek",
    "latitude": 37.75954114896331,
    "longitude": -122.3643818118682,
    "description": "Job Title: Lead Identity Agent, Home Loan Account: 93387244"
  },
  {
    "name": "Lori Larkin",
    "latitude": 37.68295232392365,
    "longitude": -122.32997616569908,
    "description": "Job Title: Regional Intranet Analyst, Checking Account: 74132954"
  },
  {
    "name": "Steve Hand",
    "latitude": 37.81469724858799,
    "longitude": -122.49814411187575,
    "description": "Job Title: Regional Interactions Orchestrator, Investment Account: 11494112"
  },
  {
    "name": "Floyd Johnson",
    "latitude": 37.81043357897116,
    "longitude": -122.48011391725188,
    "description": "Job Title: Internal Optimization Officer, Credit Card Account: 44795187"
  },
  {
    "name": "Raul Langosh",
    "latitude": 37.79334879032106,
    "longitude": -122.3343917242807,
    "description": "Job Title: District Usability Consultant, Money Market Account: 73507937"
  },
  {
    "name": "Maggie Schmidt",
    "latitude": 37.69670809218425,
    "longitude": -122.45547201891668,
    "description": "Job Title: District Web Coordinator, Investment Account: 77978262"
  },
  {
    "name": "John Schiller",
    "latitude": 37.81260619114454,
    "longitude": -122.5108156881774,
    "description": "Job Title: Investor Division Developer, Investment Account: 54162226"
  },
  {
    "name": "Wilfred Schumm",
    "latitude": 37.78120332338584,
    "longitude": -122.48328333220591,
    "description": "Job Title: Dynamic Intranet Orchestrator, Credit Card Account: 37084550"
  },
  {
    "name": "Darla Johns",
    "latitude": 37.74130403982481,
    "longitude": -122.51487765967596,
    "description": "Job Title: Lead Optimization Administrator, Credit Card Account: 27039762"
  },
  {
    "name": "Alison Dooley",
    "latitude": 37.84915350819464,
    "longitude": -122.35400206390209,
    "description": "Job Title: Human Division Executive, Auto Loan Account: 79811883"
  },
  {
    "name": "Ida Becker",
    "latitude": 37.67840566723749,
    "longitude": -122.40628606037946,
    "description": "Job Title: Lead Integration Designer, Auto Loan Account: 57354478"
  },
  {
    "name": "Mrs. Lena Brakus",
    "latitude": 37.85802515729739,
    "longitude": -122.36976704574488,
    "description": "Job Title: Legacy Metrics Consultant, Checking Account: 71560262"
  },
  {
    "name": "Leona Treutel",
    "latitude": 37.806673836502796,
    "longitude": -122.39169879235791,
    "description": "Job Title: Dynamic Marketing Representative, Savings Account: 60015399"
  },
  {
    "name": "Andrew Shields",
    "latitude": 37.850328413564895,
    "longitude": -122.35960920340831,
    "description": "Job Title: Human Functionality Planner, Savings Account: 23420556"
  },
  {
    "name": "Nancy Koepp",
    "latitude": 37.7554268191208,
    "longitude": -122.34035407194818,
    "description": "Job Title: Chief Operations Administrator, Home Loan Account: 51126383"
  },
  {
    "name": "Pete Graham Jr.",
    "latitude": 37.86200271668122,
    "longitude": -122.51087071308825,
    "description": "Job Title: Direct Optimization Producer, Credit Card Account: 64700508"
  },
  {
    "name": "Rick Keeling",
    "latitude": 37.84571934340052,
    "longitude": -122.44049649368404,
    "description": "Job Title: National Division Technician, Investment Account: 12517211"
  },
  {
    "name": "Claudia Stracke",
    "latitude": 37.724375975298805,
    "longitude": -122.38371457570807,
    "description": "Job Title: Human Markets Manager, Personal Loan Account: 10738757"
  },
  {
    "name": "Leslie Predovic",
    "latitude": 37.872511564082025,
    "longitude": -122.47266069277129,
    "description": "Job Title: Central Program Manager, Home Loan Account: 46751623"
  },
  {
    "name": "Jeffrey Deckow",
    "latitude": 37.79542292036519,
    "longitude": -122.45962185460168,
    "description": "Job Title: Forward Creative Assistant, Savings Account: 01350345"
  },
  {
    "name": "Angelo Hyatt",
    "latitude": 37.813659963696175,
    "longitude": -122.38831811922961,
    "description": "Job Title: Chief Configuration Specialist, Auto Loan Account: 85445852"
  },
  {
    "name": "Norma Jacobs",
    "latitude": 37.85838777986547,
    "longitude": -122.47504876375564,
    "description": "Job Title: Lead Accounts Manager, Checking Account: 41691268"
  },
  {
    "name": "Hubert Corwin",
    "latitude": 37.74585870581791,
    "longitude": -122.51020518176828,
    "description": "Job Title: National Markets Manager, Investment Account: 77159651"
  },
  {
    "name": "Calvin Jacobi",
    "latitude": 37.759519105950325,
    "longitude": -122.42797867493941,
    "description": "Job Title: Human Creative Executive, Credit Card Account: 71718585"
  },
  {
    "name": "Stephanie Donnelly",
    "latitude": 37.680913284350844,
    "longitude": -122.40564651196162,
    "description": "Job Title: Global Quality Orchestrator, Money Market Account: 09588625"
  },
  {
    "name": "Gregory Pouros",
    "latitude": 37.869053636388415,
    "longitude": -122.32714443557471,
    "description": "Job Title: Direct Branding Associate, Credit Card Account: 65677179"
  },
  {
    "name": "Justin Collier",
    "latitude": 37.76601642309106,
    "longitude": -122.46239297326231,
    "description": "Job Title: District Assurance Architect, Home Loan Account: 05051457"
  },
  {
    "name": "Mr. Guillermo Herzog",
    "latitude": 37.85220176858341,
    "longitude": -122.4778403316175,
    "description": "Job Title: Central Communications Specialist, Auto Loan Account: 31318979"
  },
  {
    "name": "Morris Wehner",
    "latitude": 37.69244253041022,
    "longitude": -122.50946284716693,
    "description": "Job Title: Chief Metrics Director, Home Loan Account: 51015648"
  },
  {
    "name": "Freddie Swift",
    "latitude": 37.711066441638465,
    "longitude": -122.50280937067333,
    "description": "Job Title: Human Web Specialist, Home Loan Account: 82687392"
  },
  {
    "name": "Tracy Goldner",
    "latitude": 37.846421548907685,
    "longitude": -122.38650372887683,
    "description": "Job Title: Principal Communications Officer, Checking Account: 69102387"
  },
  {
    "name": "Ted Hamill",
    "latitude": 37.844186989449376,
    "longitude": -122.40406257813065,
    "description": "Job Title: Future Integration Architect, Personal Loan Account: 11451619"
  },
  {
    "name": "Emilio Bogisich MD",
    "latitude": 37.77714526142783,
    "longitude": -122.36520223441298,
    "description": "Job Title: Direct Data Supervisor, Credit Card Account: 63275855"
  },
  {
    "name": "Taylor Block",
    "latitude": 37.68244946747279,
    "longitude": -122.46311381381875,
    "description": "Job Title: Lead Assurance Administrator, Credit Card Account: 93663625"
  },
  {
    "name": "Geraldine Haag",
    "latitude": 37.75840800150864,
    "longitude": -122.37278206759804,
    "description": "Job Title: Customer Optimization Assistant, Auto Loan Account: 73262145"
  },
  {
    "name": "Betty Willms",
    "latitude": 37.846993352268036,
    "longitude": -122.32045858291788,
    "description": "Job Title: Global Data Agent, Personal Loan Account: 88742473"
  },
  {
    "name": "Mack Wisoky",
    "latitude": 37.7682568152765,
    "longitude": -122.37055457933481,
    "description": "Job Title: District Creative Specialist, Personal Loan Account: 05171725"
  },
  {
    "name": "Lionel Boehm",
    "latitude": 37.70645332048808,
    "longitude": -122.39488868060975,
    "description": "Job Title: Internal Intranet Developer, Personal Loan Account: 80084701"
  },
  {
    "name": "Joshua Muller",
    "latitude": 37.84111853560887,
    "longitude": -122.41468441361354,
    "description": "Job Title: Principal Tactics Agent, Home Loan Account: 01188740"
  },
  {
    "name": "Jeffery Schuppe Jr.",
    "latitude": 37.77901477404093,
    "longitude": -122.45319722722613,
    "description": "Job Title: Internal Factors Liaison, Credit Card Account: 80882640"
  },
  {
    "name": "Dr. Irving Shields",
    "latitude": 37.74732543356158,
    "longitude": -122.43574953977112,
    "description": "Job Title: Future Assurance Producer, Savings Account: 37038759"
  },
  {
    "name": "Clinton Romaguera",
    "latitude": 37.846790741194994,
    "longitude": -122.3662688807097,
    "description": "Job Title: International Infrastructure Agent, Personal Loan Account: 81489759"
  },
  {
    "name": "Byron Frami",
    "latitude": 37.70862036231637,
    "longitude": -122.46726975667353,
    "description": "Job Title: Lead Markets Supervisor, Auto Loan Account: 62258641"
  },
  {
    "name": "Winifred Mertz",
    "latitude": 37.701041872093306,
    "longitude": -122.33494663774987,
    "description": "Job Title: Product Data Supervisor, Savings Account: 80199360"
  },
  {
    "name": "Lynda Bernier V",
    "latitude": 37.76570619930026,
    "longitude": -122.3393273475837,
    "description": "Job Title: Direct Applications Director, Credit Card Account: 11275614"
  },
  {
    "name": "Janice Buckridge",
    "latitude": 37.871164861080416,
    "longitude": -122.46343415757715,
    "description": "Job Title: Direct Markets Officer, Personal Loan Account: 14500716"
  },
  {
    "name": "Brian Powlowski",
    "latitude": 37.86327164889811,
    "longitude": -122.3661005092996,
    "description": "Job Title: Direct Brand Analyst, Checking Account: 78596940"
  },
  {
    "name": "Cecilia Okuneva",
    "latitude": 37.86484205142684,
    "longitude": -122.49698764282908,
    "description": "Job Title: Global Solutions Strategist, Money Market Account: 69842708"
  },
  {
    "name": "Kristie Renner",
    "latitude": 37.77709065494094,
    "longitude": -122.35096980267949,
    "description": "Job Title: Human Operations Consultant, Checking Account: 23470656"
  },
  {
    "name": "Pat Barrows",
    "latitude": 37.86353186712769,
    "longitude": -122.46055763568985,
    "description": "Job Title: Regional Division Executive, Savings Account: 68012094"
  },
  {
    "name": "Amy Hammes",
    "latitude": 37.805495312491466,
    "longitude": -122.34800349580213,
    "description": "Job Title: Dynamic Identity Facilitator, Investment Account: 48411077"
  },
  {
    "name": "Hattie Hodkiewicz",
    "latitude": 37.81880149300867,
    "longitude": -122.50249751309168,
    "description": "Job Title: Forward Operations Agent, Credit Card Account: 15096204"
  },
  {
    "name": "Mr. Johnny Dach",
    "latitude": 37.809828114659275,
    "longitude": -122.41346222198996,
    "description": "Job Title: Legacy Markets Agent, Home Loan Account: 26161348"
  },
  {
    "name": "Reginald Jenkins",
    "latitude": 37.693974475916,
    "longitude": -122.51779897545657,
    "description": "Job Title: Internal Research Strategist, Savings Account: 94881410"
  },
  {
    "name": "Patrick Effertz",
    "latitude": 37.85558164109423,
    "longitude": -122.4315760188988,
    "description": "Job Title: Human Directives Administrator, Personal Loan Account: 42821059"
  },
  {
    "name": "Dorothy Nienow",
    "latitude": 37.75013675474888,
    "longitude": -122.4652784220433,
    "description": "Job Title: Lead Assurance Planner, Credit Card Account: 77611321"
  },
  {
    "name": "Erma Orn",
    "latitude": 37.71164937112731,
    "longitude": -122.46903046189811,
    "description": "Job Title: Lead Directives Administrator, Personal Loan Account: 24639272"
  },
  {
    "name": "Glenda Murphy",
    "latitude": 37.819357816301775,
    "longitude": -122.33694222758841,
    "description": "Job Title: Central Intranet Producer, Investment Account: 22875660"
  },
  {
    "name": "Dr. Alice Swift",
    "latitude": 37.726109482407715,
    "longitude": -122.4577632632623,
    "description": "Job Title: Lead Division Supervisor, Credit Card Account: 95624849"
  },
  {
    "name": "Leroy Willms",
    "latitude": 37.79776536395448,
    "longitude": -122.38761680788788,
    "description": "Job Title: Investor Division Representative, Home Loan Account: 14462976"
  },
  {
    "name": "Joshua Parisian",
    "latitude": 37.713410377887406,
    "longitude": -122.40128683325652,
    "description": "Job Title: District Identity Strategist, Investment Account: 31256569"
  },
  {
    "name": "Earnest Ziemann",
    "latitude": 37.85060997672904,
    "longitude": -122.37123279490028,
    "description": "Job Title: Investor Configuration Representative, Investment Account: 86211211"
  },
  {
    "name": "Ora Altenwerth",
    "latitude": 37.76168532847318,
    "longitude": -122.3788601489618,
    "description": "Job Title: Corporate Response Orchestrator, Credit Card Account: 75294162"
  },
  {
    "name": "Ida Kreiger II",
    "latitude": 37.691079587582706,
    "longitude": -122.3793882292961,
    "description": "Job Title: Senior Mobility Strategist, Savings Account: 00000898"
  },
  {
    "name": "Virginia Gleason",
    "latitude": 37.77193004733029,
    "longitude": -122.36669468192717,
    "description": "Job Title: Lead Branding Agent, Money Market Account: 18569864"
  },
  {
    "name": "Lula Carter",
    "latitude": 37.707588209895675,
    "longitude": -122.33916088837256,
    "description": "Job Title: Lead Usability Developer, Investment Account: 37908153"
  },
  {
    "name": "Doreen Yundt MD",
    "latitude": 37.70624317903804,
    "longitude": -122.49415099365171,
    "description": "Job Title: Central Implementation Manager, Auto Loan Account: 23647521"
  },
  {
    "name": "Pauline Kiehn",
    "latitude": 37.834992479251035,
    "longitude": -122.43334157503529,
    "description": "Job Title: Internal Operations Director, Personal Loan Account: 09367405"
  },
  {
    "name": "Stephen Prosacco",
    "latitude": 37.86903968687999,
    "longitude": -122.45255210414463,
    "description": "Job Title: Chief Marketing Administrator, Checking Account: 50780846"
  },
  {
    "name": "Kendra Welch",
    "latitude": 37.8446110118447,
    "longitude": -122.43885583505507,
    "description": "Job Title: Principal Accountability Consultant, Auto Loan Account: 19297088"
  },
  {
    "name": "Andrew Hansen",
    "latitude": 37.771589059026724,
    "longitude": -122.45308681662638,
    "description": "Job Title: Corporate Metrics Facilitator, Money Market Account: 54784092"
  },
  {
    "name": "Jaime Parisian",
    "latitude": 37.69853849875405,
    "longitude": -122.4333260918707,
    "description": "Job Title: National Creative Analyst, Auto Loan Account: 85669151"
  },
  {
    "name": "Laurence Reinger DVM",
    "latitude": 37.75245464003414,
    "longitude": -122.36430387441077,
    "description": "Job Title: Regional Optimization Representative, Money Market Account: 24430468"
  },
  {
    "name": "Holly Reynolds",
    "latitude": 37.869641837106215,
    "longitude": -122.3765641742472,
    "description": "Job Title: Internal Operations Representative, Savings Account: 37207744"
  },
  {
    "name": "Rene McClure",
    "latitude": 37.678990609425405,
    "longitude": -122.48122132415789,
    "description": "Job Title: National Intranet Developer, Auto Loan Account: 90010500"
  },
  {
    "name": "Brad Beahan",
    "latitude": 37.811728205742824,
    "longitude": -122.33360555921438,
    "description": "Job Title: Investor Quality Associate, Money Market Account: 95954301"
  },
  {
    "name": "Pauline Yundt",
    "latitude": 37.85885309363723,
    "longitude": -122.42423921545083,
    "description": "Job Title: Future Data Consultant, Checking Account: 02702739"
  },
  {
    "name": "Courtney Rutherford I",
    "latitude": 37.75681061541284,
    "longitude": -122.37794034752169,
    "description": "Job Title: Corporate Marketing Consultant, Credit Card Account: 34475315"
  },
  {
    "name": "Miss Lena Rath",
    "latitude": 37.73677946507608,
    "longitude": -122.34927324351791,
    "description": "Job Title: Corporate Creative Planner, Investment Account: 15599566"
  },
  {
    "name": "Mabel Harvey",
    "latitude": 37.69893974149279,
    "longitude": -122.34752303715429,
    "description": "Job Title: Legacy Metrics Producer, Credit Card Account: 12305045"
  },
  {
    "name": "Shawn Volkman",
    "latitude": 37.81547607091136,
    "longitude": -122.36760618920277,
    "description": "Job Title: Lead Identity Technician, Investment Account: 88613586"
  },
  {
    "name": "Gene Rodriguez",
    "latitude": 37.76993935215361,
    "longitude": -122.3780726602654,
    "description": "Job Title: Customer Factors Assistant, Personal Loan Account: 40687276"
  },
  {
    "name": "Dr. Carlos Fadel",
    "latitude": 37.74970280104038,
    "longitude": -122.38311969009179,
    "description": "Job Title: Regional Security Administrator, Checking Account: 96496652"
  },
  {
    "name": "Francis Huels",
    "latitude": 37.69889540494393,
    "longitude": -122.49640097794806,
    "description": "Job Title: Senior Communications Designer, Checking Account: 08391635"
  },
  {
    "name": "Alice Schneider",
    "latitude": 37.83189925650933,
    "longitude": -122.51456158021166,
    "description": "Job Title: Human Markets Liaison, Credit Card Account: 99855744"
  },
  {
    "name": "Jimmy Terry",
    "latitude": 37.760798922242316,
    "longitude": -122.35276305730042,
    "description": "Job Title: Central Web Consultant, Investment Account: 45248369"
  },
  {
    "name": "Dallas Dach",
    "latitude": 37.78879039666957,
    "longitude": -122.49211979764839,
    "description": "Job Title: Investor Mobility Officer, Auto Loan Account: 63132458"
  },
  {
    "name": "Ms. Sergio Reilly",
    "latitude": 37.75145179797734,
    "longitude": -122.48228553135495,
    "description": "Job Title: Future Usability Strategist, Savings Account: 39633005"
  },
  {
    "name": "Benny Schuppe",
    "latitude": 37.68915971193741,
    "longitude": -122.5037102597867,
    "description": "Job Title: Regional Tactics Supervisor, Credit Card Account: 92128160"
  },
  {
    "name": "Myra Douglas",
    "latitude": 37.78579510565493,
    "longitude": -122.34312005668615,
    "description": "Job Title: Lead Branding Associate, Savings Account: 35098234"
  },
  {
    "name": "Gretchen Kessler I",
    "latitude": 37.831158725458636,
    "longitude": -122.50891198146978,
    "description": "Job Title: Lead Metrics Orchestrator, Investment Account: 48771221"
  },
  {
    "name": "Caroline Schneider",
    "latitude": 37.767554729939555,
    "longitude": -122.36835553723375,
    "description": "Job Title: District Operations Associate, Money Market Account: 82946724"
  },
  {
    "name": "Elijah Hettinger",
    "latitude": 37.84097517457325,
    "longitude": -122.34496884273112,
    "description": "Job Title: Dynamic Brand Planner, Personal Loan Account: 63140756"
  },
  {
    "name": "Leon Gutkowski",
    "latitude": 37.7256244728795,
    "longitude": -122.5074026154096,
    "description": "Job Title: Future Identity Agent, Auto Loan Account: 72957584"
  },
  {
    "name": "Ernest Ryan",
    "latitude": 37.87163805269189,
    "longitude": -122.42837780080528,
    "description": "Job Title: Corporate Directives Assistant, Money Market Account: 63127623"
  },
  {
    "name": "Bert Abernathy",
    "latitude": 37.76941861962773,
    "longitude": -122.32229380175802,
    "description": "Job Title: Legacy Quality Planner, Credit Card Account: 06532834"
  },
  {
    "name": "Dwight Feest",
    "latitude": 37.83119340585492,
    "longitude": -122.43666094367445,
    "description": "Job Title: Forward Group Analyst, Auto Loan Account: 29516878"
  },
  {
    "name": "Kate Sipes",
    "latitude": 37.68605250424454,
    "longitude": -122.46291500646863,
    "description": "Job Title: International Functionality Officer, Home Loan Account: 97172903"
  },
  {
    "name": "Stacy Stanton",
    "latitude": 37.81691474880026,
    "longitude": -122.4736687177931,
    "description": "Job Title: Forward Web Developer, Investment Account: 65815641"
  },
  {
    "name": "Mack Murray",
    "latitude": 37.759856459800076,
    "longitude": -122.46397485002888,
    "description": "Job Title: Product Identity Liaison, Credit Card Account: 44874073"
  },
  {
    "name": "Ron Boyle",
    "latitude": 37.76395285978774,
    "longitude": -122.43531564230807,
    "description": "Job Title: Customer Division Liaison, Checking Account: 59060149"
  },
  {
    "name": "Jean Kerluke",
    "latitude": 37.85061790887697,
    "longitude": -122.47444834855786,
    "description": "Job Title: Investor Paradigm Supervisor, Checking Account: 38097253"
  },
  {
    "name": "Taylor Kilback",
    "latitude": 37.79639211321973,
    "longitude": -122.39034969171199,
    "description": "Job Title: National Configuration Executive, Money Market Account: 22683884"
  },
  {
    "name": "Irvin Hudson",
    "latitude": 37.748125586130556,
    "longitude": -122.4496805698612,
    "description": "Job Title: Global Paradigm Representative, Checking Account: 55371758"
  },
  {
    "name": "Mr. Paula Heathcote",
    "latitude": 37.817182128211925,
    "longitude": -122.43763306710636,
    "description": "Job Title: Customer Solutions Technician, Money Market Account: 39022067"
  },
  {
    "name": "Eva Feil DDS",
    "latitude": 37.83618622008126,
    "longitude": -122.41265019366698,
    "description": "Job Title: District Program Coordinator, Home Loan Account: 26232888"
  },
  {
    "name": "Yvette Kling",
    "latitude": 37.86669518232219,
    "longitude": -122.44494356204318,
    "description": "Job Title: Chief Paradigm Liaison, Checking Account: 23141383"
  },
  {
    "name": "Dianna Olson",
    "latitude": 37.82499389838564,
    "longitude": -122.44930155375512,
    "description": "Job Title: National Program Manager, Credit Card Account: 05587161"
  },
  {
    "name": "John Turcotte PhD",
    "latitude": 37.7777501200608,
    "longitude": -122.39634474768948,
    "description": "Job Title: Chief Quality Supervisor, Investment Account: 99471932"
  },
  {
    "name": "Ronnie Mohr",
    "latitude": 37.706929291225656,
    "longitude": -122.50681426588815,
    "description": "Job Title: Human Marketing Developer, Personal Loan Account: 86529901"
  },
  {
    "name": "Melanie Ritchie",
    "latitude": 37.67997608493063,
    "longitude": -122.34482087896714,
    "description": "Job Title: Product Response Liaison, Money Market Account: 58057004"
  },
  {
    "name": "Richard MacGyver",
    "latitude": 37.768897238431144,
    "longitude": -122.34623504343269,
    "description": "Job Title: Investor Operations Specialist, Personal Loan Account: 20723491"
  },
  {
    "name": "Max Kuphal",
    "latitude": 37.68959945959359,
    "longitude": -122.50133771686514,
    "description": "Job Title: District Solutions Consultant, Money Market Account: 29232705"
  },
  {
    "name": "Veronica Waters",
    "latitude": 37.82648231441339,
    "longitude": -122.49505789211989,
    "description": "Job Title: Lead Operations Planner, Money Market Account: 33577589"
  },
  {
    "name": "Miss Cheryl Prohaska",
    "latitude": 37.83820657875877,
    "longitude": -122.32934471425209,
    "description": "Job Title: National Applications Specialist, Investment Account: 07366513"
  },
  {
    "name": "Mrs. Robert Satterfield",
    "latitude": 37.828279087514915,
    "longitude": -122.48799039584627,
    "description": "Job Title: Human Functionality Designer, Money Market Account: 45502348"
  },
  {
    "name": "Pablo Reynolds DVM",
    "latitude": 37.803723532639225,
    "longitude": -122.3461785171457,
    "description": "Job Title: District Intranet Associate, Personal Loan Account: 19605560"
  },
  {
    "name": "Darren Windler",
    "latitude": 37.73951161311745,
    "longitude": -122.3934230941781,
    "description": "Job Title: Legacy Research Coordinator, Money Market Account: 92176176"
  },
  {
    "name": "Owen Ferry",
    "latitude": 37.84877057487738,
    "longitude": -122.37058579916159,
    "description": "Job Title: Global Integration Designer, Home Loan Account: 29493427"
  },
  {
    "name": "Alberto Volkman",
    "latitude": 37.69998241629781,
    "longitude": -122.4542048649503,
    "description": "Job Title: Lead Division Analyst, Investment Account: 50286594"
  },
  {
    "name": "Conrad Conn",
    "latitude": 37.70788496500962,
    "longitude": -122.41686865763673,
    "description": "Job Title: Legacy Quality Director, Credit Card Account: 30182072"
  },
  {
    "name": "Ethel Stiedemann",
    "latitude": 37.72416252105035,
    "longitude": -122.49786792054809,
    "description": "Job Title: District Functionality Developer, Home Loan Account: 67172775"
  },